header: 
  seq: 89632
  stamp: 
    secs: 1512506437
    nsecs:  77237109
  frame_id: imu_link
orientation: 
  x: -0.0160314869136
  y: 0.024083700031
  z: 0.990642726421
  w: 0.133379176259
orientation_covariance: [0.0, 0.0, 0.0, 0.0, 0.0, 0.0, 0.0, 0.0, 0.0]
angular_velocity: 
  x: -0.0013291061623
  y: -0.000543350819498
  z: -0.000617045094259
angular_velocity_covariance: [0.0, 0.0, 0.0, 0.0, 0.0, 0.0, 0.0, 0.0, 0.0]
linear_acceleration: 
  x: 0.437215939052
  y: -0.418232112899
  z: -9.79524922907
linear_acceleration_covariance: [0.0, 0.0, 0.0, 0.0, 0.0, 0.0, 0.0, 0.0, 0.0]
---
header: 
  seq: 89633
  stamp: 
    secs: 1512506437
    nsecs:  83635629
  frame_id: imu_link
orientation: 
  x: -0.0160288754851
  y: 0.0240855328739
  z: 0.990646541119
  w: 0.133350715041
orientation_covariance: [0.0, 0.0, 0.0, 0.0, 0.0, 0.0, 0.0, 0.0, 0.0]
angular_velocity: 
  x: -0.00166878476739
  y: 0.00010380949243
  z: 9.90198532236e-05
angular_velocity_covariance: [0.0, 0.0, 0.0, 0.0, 0.0, 0.0, 0.0, 0.0, 0.0]
linear_acceleration: 
  x: 0.4363672157
  y: -0.416747066304
  z: -9.79875054181
linear_acceleration_covariance: [0.0, 0.0, 0.0, 0.0, 0.0, 0.0, 0.0, 0.0, 0.0]
---
header: 
  seq: 89634
  stamp: 
    secs: 1512506437
    nsecs:  97028467
  frame_id: imu_link
orientation: 
  x: -0.0160275232047
  y: 0.0240814052522
  z: 0.990651011467
  w: 0.133318439126
orientation_covariance: [0.0, 0.0, 0.0, 0.0, 0.0, 0.0, 0.0, 0.0, 0.0]
angular_velocity: 
  x: -0.00173791334964
  y: -0.00110978039447
  z: -0.000218890723772
angular_velocity_covariance: [0.0, 0.0, 0.0, 0.0, 0.0, 0.0, 0.0, 0.0, 0.0]
linear_acceleration: 
  x: 0.434431787319
  y: -0.416013058014
  z: -9.79956038117
linear_acceleration_covariance: [0.0, 0.0, 0.0, 0.0, 0.0, 0.0, 0.0, 0.0, 0.0]
---
header: 
  seq: 89635
  stamp: 
    secs: 1512506437
    nsecs: 107011204
  frame_id: imu_link
orientation: 
  x: -0.016021694988
  y: 0.0240839961916
  z: 0.990655779839
  w: 0.133283242583
orientation_covariance: [0.0, 0.0, 0.0, 0.0, 0.0, 0.0, 0.0, 0.0, 0.0]
angular_velocity: 
  x: -0.00201001856476
  y: 0.000190624588868
  z: -0.000389471184462
angular_velocity_covariance: [0.0, 0.0, 0.0, 0.0, 0.0, 0.0, 0.0, 0.0, 0.0]
linear_acceleration: 
  x: 0.436230500489
  y: -0.414357747808
  z: -9.78832437158
linear_acceleration_covariance: [0.0, 0.0, 0.0, 0.0, 0.0, 0.0, 0.0, 0.0, 0.0]
---
header: 
  seq: 89636
  stamp: 
    secs: 1512506437
    nsecs: 113688684
  frame_id: imu_link
orientation: 
  x: -0.0160205271095
  y: 0.0240845512599
  z: 0.990659177303
  w: 0.133258074522
orientation_covariance: [0.0, 0.0, 0.0, 0.0, 0.0, 0.0, 0.0, 0.0, 0.0]
angular_velocity: 
  x: -0.00219306768849
  y: 0.000559467356652
  z: 9.56281728577e-05
angular_velocity_covariance: [0.0, 0.0, 0.0, 0.0, 0.0, 0.0, 0.0, 0.0, 0.0]
linear_acceleration: 
  x: 0.433951146193
  y: -0.4138035414
  z: -9.79322199941
linear_acceleration_covariance: [0.0, 0.0, 0.0, 0.0, 0.0, 0.0, 0.0, 0.0, 0.0]
---
header: 
  seq: 89637
  stamp: 
    secs: 1512506437
    nsecs: 127014218
  frame_id: imu_link
orientation: 
  x: -0.0160208325833
  y: 0.0240839738399
  z: 0.990663051605
  w: 0.133228987455
orientation_covariance: [0.0, 0.0, 0.0, 0.0, 0.0, 0.0, 0.0, 0.0, 0.0]
angular_velocity: 
  x: -0.000763897551224
  y: -0.000477544468595
  z: -0.000465644756332
angular_velocity_covariance: [0.0, 0.0, 0.0, 0.0, 0.0, 0.0, 0.0, 0.0, 0.0]
linear_acceleration: 
  x: 0.437170440406
  y: -0.414105184637
  z: -9.79078312576
linear_acceleration_covariance: [0.0, 0.0, 0.0, 0.0, 0.0, 0.0, 0.0, 0.0, 0.0]
---
header: 
  seq: 89638
  stamp: 
    secs: 1512506437
    nsecs: 137005224
  frame_id: imu_link
orientation: 
  x: -0.0160178057849
  y: 0.0240893457085
  z: 0.990666747093
  w: 0.133201152086
orientation_covariance: [0.0, 0.0, 0.0, 0.0, 0.0, 0.0, 0.0, 0.0, 0.0]
angular_velocity: 
  x: -0.00172375713009
  y: 0.000436850852566
  z: 0.000212177081266
angular_velocity_covariance: [0.0, 0.0, 0.0, 0.0, 0.0, 0.0, 0.0, 0.0, 0.0]
linear_acceleration: 
  x: 0.434144908302
  y: -0.415644427612
  z: -9.7912181586
linear_acceleration_covariance: [0.0, 0.0, 0.0, 0.0, 0.0, 0.0, 0.0, 0.0, 0.0]
---
header: 
  seq: 89639
  stamp: 
    secs: 1512506437
    nsecs: 143682677
  frame_id: imu_link
orientation: 
  x: -0.0160223487765
  y: 0.0240856539458
  z: 0.990669369698
  w: 0.13318169117
orientation_covariance: [0.0, 0.0, 0.0, 0.0, 0.0, 0.0, 0.0, 0.0, 0.0]
angular_velocity: 
  x: -0.00119330349844
  y: -0.0009485372575
  z: 0.000504458788782
angular_velocity_covariance: [0.0, 0.0, 0.0, 0.0, 0.0, 0.0, 0.0, 0.0, 0.0]
linear_acceleration: 
  x: 0.434743370824
  y: -0.416974522993
  z: -9.79063577592
linear_acceleration_covariance: [0.0, 0.0, 0.0, 0.0, 0.0, 0.0, 0.0, 0.0, 0.0]
---
header: 
  seq: 89640
  stamp: 
    secs: 1512506437
    nsecs: 157015168
  frame_id: imu_link
orientation: 
  x: -0.0160213951021
  y: 0.0240858513862
  z: 0.990672886372
  w: 0.133155554533
orientation_covariance: [0.0, 0.0, 0.0, 0.0, 0.0, 0.0, 0.0, 0.0, 0.0]
angular_velocity: 
  x: -0.00179072225001
  y: -0.000230245728744
  z: 0.00041695102118
angular_velocity_covariance: [0.0, 0.0, 0.0, 0.0, 0.0, 0.0, 0.0, 0.0, 0.0]
linear_acceleration: 
  x: 0.437978233248
  y: -0.41910634473
  z: -9.78809691489
linear_acceleration_covariance: [0.0, 0.0, 0.0, 0.0, 0.0, 0.0, 0.0, 0.0, 0.0]
---
header: 
  seq: 89641
  stamp: 
    secs: 1512506437
    nsecs: 170355571
  frame_id: imu_link
orientation: 
  x: -0.0160250850022
  y: 0.0240916348994
  z: 0.99067646265
  w: 0.133127585053
orientation_covariance: [0.0, 0.0, 0.0, 0.0, 0.0, 0.0, 0.0, 0.0, 0.0]
angular_velocity: 
  x: -0.000756713037845
  y: 0.000750211882405
  z: -0.000824533810373
angular_velocity_covariance: [0.0, 0.0, 0.0, 0.0, 0.0, 0.0, 0.0, 0.0, 0.0]
linear_acceleration: 
  x: 0.437956817821
  y: -0.420090102218
  z: -9.79752555013
linear_acceleration_covariance: [0.0, 0.0, 0.0, 0.0, 0.0, 0.0, 0.0, 0.0, 0.0]
---
header: 
  seq: 89642
  stamp: 
    secs: 1512506437
    nsecs: 173685150
  frame_id: imu_link
orientation: 
  x: -0.0160260889679
  y: 0.0240873843431
  z: 0.990680277348
  w: 0.133099541068
orientation_covariance: [0.0, 0.0, 0.0, 0.0, 0.0, 0.0, 0.0, 0.0, 0.0]
angular_velocity: 
  x: -0.0011364481179
  y: -0.00130366638768
  z: -0.000598493847065
angular_velocity_covariance: [0.0, 0.0, 0.0, 0.0, 0.0, 0.0, 0.0, 0.0, 0.0]
linear_acceleration: 
  x: 0.44136340566
  y: -0.422376144268
  z: -9.79203618407
linear_acceleration_covariance: [0.0, 0.0, 0.0, 0.0, 0.0, 0.0, 0.0, 0.0, 0.0]
---
header: 
  seq: 89643
  stamp: 
    secs: 1512506437
    nsecs: 187015732
  frame_id: imu_link
orientation: 
  x: -0.0160250980407
  y: 0.0240858476609
  z: 0.990683376789
  w: 0.133076652884
orientation_covariance: [0.0, 0.0, 0.0, 0.0, 0.0, 0.0, 0.0, 0.0, 0.0]
angular_velocity: 
  x: -0.00241749710403
  y: -0.000547043280676
  z: 0.000329856702592
angular_velocity_covariance: [0.0, 0.0, 0.0, 0.0, 0.0, 0.0, 0.0, 0.0, 0.0]
linear_acceleration: 
  x: 0.438318870105
  y: -0.425867589824
  z: -9.78702862859
linear_acceleration_covariance: [0.0, 0.0, 0.0, 0.0, 0.0, 0.0, 0.0, 0.0, 0.0]
---
header: 
  seq: 89644
  stamp: 
    secs: 1512506437
    nsecs: 197024873
  frame_id: imu_link
orientation: 
  x: -0.0160338766873
  y: 0.0240870788693
  z: 0.990686416626
  w: 0.133052840829
orientation_covariance: [0.0, 0.0, 0.0, 0.0, 0.0, 0.0, 0.0, 0.0, 0.0]
angular_velocity: 
  x: -0.000775195192546
  y: -2.19267094508e-05
  z: 0.000184597956832
angular_velocity_covariance: [0.0, 0.0, 0.0, 0.0, 0.0, 0.0, 0.0, 0.0, 0.0]
linear_acceleration: 
  x: 0.440347598121
  y: -0.42782936722
  z: -9.78384189606
linear_acceleration_covariance: [0.0, 0.0, 0.0, 0.0, 0.0, 0.0, 0.0, 0.0, 0.0]
---
header: 
  seq: 89645
  stamp: 
    secs: 1512506437
    nsecs: 203723742
  frame_id: imu_link
orientation: 
  x: -0.0160342361778
  y: 0.0240881927311
  z: 0.990689516068
  w: 0.133030056953
orientation_covariance: [0.0, 0.0, 0.0, 0.0, 0.0, 0.0, 0.0, 0.0, 0.0]
angular_velocity: 
  x: -0.00150593731087
  y: -3.73393413611e-06
  z: 0.000313404743792
angular_velocity_covariance: [0.0, 0.0, 0.0, 0.0, 0.0, 0.0, 0.0, 0.0, 0.0]
linear_acceleration: 
  x: 0.440339667834
  y: -0.426874882355
  z: -9.78159013331
linear_acceleration_covariance: [0.0, 0.0, 0.0, 0.0, 0.0, 0.0, 0.0, 0.0, 0.0]
---
header: 
  seq: 89646
  stamp: 
    secs: 1512506437
    nsecs: 217029448
  frame_id: imu_link
orientation: 
  x: -0.0160347446799
  y: 0.0240855198354
  z: 0.99069237709
  w: 0.133008807898
orientation_covariance: [0.0, 0.0, 0.0, 0.0, 0.0, 0.0, 0.0, 0.0, 0.0]
angular_velocity: 
  x: -0.00227562128566
  y: -0.00108966068365
  z: -0.000802175723948
angular_velocity_covariance: [0.0, 0.0, 0.0, 0.0, 0.0, 0.0, 0.0, 0.0, 0.0]
linear_acceleration: 
  x: 0.439822810516
  y: -0.428968149014
  z: -9.78679649413
linear_acceleration_covariance: [0.0, 0.0, 0.0, 0.0, 0.0, 0.0, 0.0, 0.0, 0.0]
---
header: 
  seq: 89647
  stamp: 
    secs: 1512506437
    nsecs: 226995940
  frame_id: imu_link
orientation: 
  x: -0.016038056463
  y: 0.0240879394114
  z: 0.990695238113
  w: 0.132987007499
orientation_covariance: [0.0, 0.0, 0.0, 0.0, 0.0, 0.0, 0.0, 0.0, 0.0]
angular_velocity: 
  x: -0.00148245319724
  y: -0.000443381373771
  z: -0.000677874777466
angular_velocity_covariance: [0.0, 0.0, 0.0, 0.0, 0.0, 0.0, 0.0, 0.0, 0.0]
linear_acceleration: 
  x: 0.441304092966
  y: -0.432049375847
  z: -9.7864813292
linear_acceleration_covariance: [0.0, 0.0, 0.0, 0.0, 0.0, 0.0, 0.0, 0.0, 0.0]
---
header: 
  seq: 89648
  stamp: 
    secs: 1512506437
    nsecs: 233656754
  frame_id: imu_link
orientation: 
  x: -0.0160374864936
  y: 0.0240888632834
  z: 0.990697920322
  w: 0.132966890931
orientation_covariance: [0.0, 0.0, 0.0, 0.0, 0.0, 0.0, 0.0, 0.0, 0.0]
angular_velocity: 
  x: -0.00179621414281
  y: -0.00039489811752
  z: -0.000841588829644
angular_velocity_covariance: [0.0, 0.0, 0.0, 0.0, 0.0, 0.0, 0.0, 0.0, 0.0]
linear_acceleration: 
  x: 0.443335488774
  y: -0.432291377485
  z: -9.79603275597
linear_acceleration_covariance: [0.0, 0.0, 0.0, 0.0, 0.0, 0.0, 0.0, 0.0, 0.0]
---
header: 
  seq: 89649
  stamp: 
    secs: 1512506437
    nsecs: 247022909
  frame_id: imu_link
orientation: 
  x: -0.0160441081971
  y: 0.0240879952908
  z: 0.990700244904
  w: 0.132948860526
orientation_covariance: [0.0, 0.0, 0.0, 0.0, 0.0, 0.0, 0.0, 0.0, 0.0]
angular_velocity: 
  x: -0.000993590336293
  y: -0.00107492739335
  z: -0.000772041094024
angular_velocity_covariance: [0.0, 0.0, 0.0, 0.0, 0.0, 0.0, 0.0, 0.0, 0.0]
linear_acceleration: 
  x: 0.44280719284
  y: -0.431002212614
  z: -9.77201707184
linear_acceleration_covariance: [0.0, 0.0, 0.0, 0.0, 0.0, 0.0, 0.0, 0.0, 0.0]
---
header: 
  seq: 89650
  stamp: 
    secs: 1512506437
    nsecs: 257028322
  frame_id: imu_link
orientation: 
  x: -0.0160403680056
  y: 0.0240887105465
  z: 0.99070250988
  w: 0.132932424545
orientation_covariance: [0.0, 0.0, 0.0, 0.0, 0.0, 0.0, 0.0, 0.0, 0.0]
angular_velocity: 
  x: -0.00229970854707
  y: -0.00045560853323
  z: -9.37065051403e-05
angular_velocity_covariance: [0.0, 0.0, 0.0, 0.0, 0.0, 0.0, 0.0, 0.0, 0.0]
linear_acceleration: 
  x: 0.442252145894
  y: -0.427633412406
  z: -9.7866222471
linear_acceleration_covariance: [0.0, 0.0, 0.0, 0.0, 0.0, 0.0, 0.0, 0.0, 0.0]
---
header: 
  seq: 89651
  stamp: 
    secs: 1512506437
    nsecs: 263678043
  frame_id: imu_link
orientation: 
  x: -0.0160419978201
  y: 0.0240910220891
  z: 0.990704298019
  w: 0.132918685675
orientation_covariance: [0.0, 0.0, 0.0, 0.0, 0.0, 0.0, 0.0, 0.0, 0.0]
angular_velocity: 
  x: -0.00149866868742
  y: -0.000485686352476
  z: -6.98614749126e-05
angular_velocity_covariance: [0.0, 0.0, 0.0, 0.0, 0.0, 0.0, 0.0, 0.0, 0.0]
linear_acceleration: 
  x: 0.444142441079
  y: -0.428116209693
  z: -9.79236889064
linear_acceleration_covariance: [0.0, 0.0, 0.0, 0.0, 0.0, 0.0, 0.0, 0.0, 0.0]
---
header: 
  seq: 89652
  stamp: 
    secs: 1512506437
    nsecs: 277017506
  frame_id: imu_link
orientation: 
  x: -0.0160421337932
  y: 0.02409013547
  z: 0.990706562996
  w: 0.132901266217
orientation_covariance: [0.0, 0.0, 0.0, 0.0, 0.0, 0.0, 0.0, 0.0, 0.0]
angular_velocity: 
  x: -0.00233637494966
  y: -0.000221021342441
  z: -8.84374021553e-05
angular_velocity_covariance: [0.0, 0.0, 0.0, 0.0, 0.0, 0.0, 0.0, 0.0, 0.0]
linear_acceleration: 
  x: 0.440590769202
  y: -0.426751652285
  z: -9.78376003504
linear_acceleration_covariance: [0.0, 0.0, 0.0, 0.0, 0.0, 0.0, 0.0, 0.0, 0.0]
---
header: 
  seq: 89653
  stamp: 
    secs: 1512506437
    nsecs: 287033884
  frame_id: imu_link
orientation: 
  x: -0.0160390213132
  y: 0.0240941252559
  z: 0.990708708763
  w: 0.132885545492
orientation_covariance: [0.0, 0.0, 0.0, 0.0, 0.0, 0.0, 0.0, 0.0, 0.0]
angular_velocity: 
  x: -0.00258564739488
  y: -2.00456706807e-05
  z: 5.19424211234e-05
angular_velocity_covariance: [0.0, 0.0, 0.0, 0.0, 0.0, 0.0, 0.0, 0.0, 0.0]
linear_acceleration: 
  x: 0.441087599806
  y: -0.430520292409
  z: -9.80066024244
linear_acceleration_covariance: [0.0, 0.0, 0.0, 0.0, 0.0, 0.0, 0.0, 0.0, 0.0]
---
header: 
  seq: 89654
  stamp: 
    secs: 1512506437
    nsecs: 293683080
  frame_id: imu_link
orientation: 
  x: -0.0160425491631
  y: 0.024092739448
  z: 0.990710496902
  w: 0.132871508598
orientation_covariance: [0.0, 0.0, 0.0, 0.0, 0.0, 0.0, 0.0, 0.0, 0.0]
angular_velocity: 
  x: -0.00155177374836
  y: -0.00077736005187
  z: 8.35702230688e-05
angular_velocity_covariance: [0.0, 0.0, 0.0, 0.0, 0.0, 0.0, 0.0, 0.0, 0.0]
linear_acceleration: 
  x: 0.443574859165
  y: -0.426797041297
  z: -9.79625261128
linear_acceleration_covariance: [0.0, 0.0, 0.0, 0.0, 0.0, 0.0, 0.0, 0.0, 0.0]
---
header: 
  seq: 89655
  stamp: 
    secs: 1512506437
    nsecs: 307043173
  frame_id: imu_link
orientation: 
  x: -0.0160420965403
  y: 0.024089274928
  z: 0.990712165833
  w: 0.132859498262
orientation_covariance: [0.0, 0.0, 0.0, 0.0, 0.0, 0.0, 0.0, 0.0, 0.0]
angular_velocity: 
  x: -0.00220817443915
  y: -0.000899734674022
  z: -0.00019826751668
angular_velocity_covariance: [0.0, 0.0, 0.0, 0.0, 0.0, 0.0, 0.0, 0.0, 0.0]
linear_acceleration: 
  x: 0.441731122434
  y: -0.425698714927
  z: -9.78119720042
linear_acceleration_covariance: [0.0, 0.0, 0.0, 0.0, 0.0, 0.0, 0.0, 0.0, 0.0]
---
header: 
  seq: 89656
  stamp: 
    secs: 1512506437
    nsecs: 323689275
  frame_id: imu_link
orientation: 
  x: -0.0160341318697
  y: 0.0240872204304
  z: 0.990713238716
  w: 0.132853463292
orientation_covariance: [0.0, 0.0, 0.0, 0.0, 0.0, 0.0, 0.0, 0.0, 0.0]
angular_velocity: 
  x: -0.00353719014674
  y: -0.000905829481781
  z: -0.000303627573885
angular_velocity_covariance: [0.0, 0.0, 0.0, 0.0, 0.0, 0.0, 0.0, 0.0, 0.0]
linear_acceleration: 
  x: 0.442898482494
  y: -0.424890629724
  z: -9.80051113844
linear_acceleration_covariance: [0.0, 0.0, 0.0, 0.0, 0.0, 0.0, 0.0, 0.0, 0.0]
---
header: 
  seq: 89657
  stamp: 
    secs: 1512506437
    nsecs: 327022579
  frame_id: imu_link
orientation: 
  x: -0.0160374883562
  y: 0.0240894928575
  z: 0.990714251995
  w: 0.132844820619
orientation_covariance: [0.0, 0.0, 0.0, 0.0, 0.0, 0.0, 0.0, 0.0, 0.0]
angular_velocity: 
  x: -0.00142972299363
  y: -0.00109336571768
  z: -0.000612413976341
angular_velocity_covariance: [0.0, 0.0, 0.0, 0.0, 0.0, 0.0, 0.0, 0.0, 0.0]
linear_acceleration: 
  x: 0.441000330113
  y: -0.423625328802
  z: -9.79792374551
linear_acceleration_covariance: [0.0, 0.0, 0.0, 0.0, 0.0, 0.0, 0.0, 0.0, 0.0]
---
header: 
  seq: 89658
  stamp: 
    secs: 1512506437
    nsecs: 337061969
  frame_id: imu_link
orientation: 
  x: -0.0160351060331
  y: 0.0240874383599
  z: 0.990715324879
  w: 0.132837578654
orientation_covariance: [0.0, 0.0, 0.0, 0.0, 0.0, 0.0, 0.0, 0.0, 0.0]
angular_velocity: 
  x: -0.00153688061982
  y: -0.000577548111323
  z: 0.000480429182062
angular_velocity_covariance: [0.0, 0.0, 0.0, 0.0, 0.0, 0.0, 0.0, 0.0, 0.0]
linear_acceleration: 
  x: 0.440147915706
  y: -0.419634202123
  z: -9.78388165712
linear_acceleration_covariance: [0.0, 0.0, 0.0, 0.0, 0.0, 0.0, 0.0, 0.0, 0.0]
---
header: 
  seq: 89659
  stamp: 
    secs: 1512506437
    nsecs: 350374168
  frame_id: imu_link
orientation: 
  x: -0.016039961949
  y: 0.0240892153233
  z: 0.990715920925
  w: 0.132831901312
orientation_covariance: [0.0, 0.0, 0.0, 0.0, 0.0, 0.0, 0.0, 0.0, 0.0]
angular_velocity: 
  x: -0.000551593257114
  y: 0.000584381341469
  z: 0.000303751177853
angular_velocity_covariance: [0.0, 0.0, 0.0, 0.0, 0.0, 0.0, 0.0, 0.0, 0.0]
linear_acceleration: 
  x: 0.439345896989
  y: -0.41865077354
  z: -9.7878612721
linear_acceleration_covariance: [0.0, 0.0, 0.0, 0.0, 0.0, 0.0, 0.0, 0.0, 0.0]
---
header: 
  seq: 89660
  stamp: 
    secs: 1512506437
    nsecs: 353703903
  frame_id: imu_link
orientation: 
  x: -0.0160359218717
  y: 0.0240874495357
  z: 0.990716695786
  w: 0.13282713294
orientation_covariance: [0.0, 0.0, 0.0, 0.0, 0.0, 0.0, 0.0, 0.0, 0.0]
angular_velocity: 
  x: -0.00172125478275
  y: -0.000686123268679
  z: -0.000546280061826
angular_velocity_covariance: [0.0, 0.0, 0.0, 0.0, 0.0, 0.0, 0.0, 0.0, 0.0]
linear_acceleration: 
  x: 0.436970355995
  y: -0.418616421148
  z: -9.79264254034
linear_acceleration_covariance: [0.0, 0.0, 0.0, 0.0, 0.0, 0.0, 0.0, 0.0, 0.0]
---
header: 
  seq: 89661
  stamp: 
    secs: 1512506437
    nsecs: 367030769
  frame_id: imu_link
orientation: 
  x: -0.0160328671336
  y: 0.0240832082927
  z: 0.990717887878
  w: 0.132819503546
orientation_covariance: [0.0, 0.0, 0.0, 0.0, 0.0, 0.0, 0.0, 0.0, 0.0]
angular_velocity: 
  x: -0.00179098453373
  y: -0.00108608126175
  z: -0.000545933784451
angular_velocity_covariance: [0.0, 0.0, 0.0, 0.0, 0.0, 0.0, 0.0, 0.0, 0.0]
linear_acceleration: 
  x: 0.437398847267
  y: -0.416920509338
  z: -9.78614452958
linear_acceleration_covariance: [0.0, 0.0, 0.0, 0.0, 0.0, 0.0, 0.0, 0.0, 0.0]
---
header: 
  seq: 89662
  stamp: 
    secs: 1512506437
    nsecs: 380363155
  frame_id: imu_link
orientation: 
  x: -0.016038890928
  y: 0.0240824744105
  z: 0.99071842432
  w: 0.132814973593
orientation_covariance: [0.0, 0.0, 0.0, 0.0, 0.0, 0.0, 0.0, 0.0, 0.0]
angular_velocity: 
  x: -0.00066637143027
  y: -0.000560635235161
  z: 8.90459341463e-06
angular_velocity_covariance: [0.0, 0.0, 0.0, 0.0, 0.0, 0.0, 0.0, 0.0, 0.0]
linear_acceleration: 
  x: 0.437868671045
  y: -0.419992782623
  z: -9.7886693573
linear_acceleration_covariance: [0.0, 0.0, 0.0, 0.0, 0.0, 0.0, 0.0, 0.0, 0.0]
---
header: 
  seq: 89663
  stamp: 
    secs: 1512506437
    nsecs: 383853554
  frame_id: imu_link
orientation: 
  x: -0.0160384401679
  y: 0.0240869261324
  z: 0.990718781948
  w: 0.132811233401
orientation_covariance: [0.0, 0.0, 0.0, 0.0, 0.0, 0.0, 0.0, 0.0, 0.0]
angular_velocity: 
  x: -0.00146918545943
  y: 7.11216416676e-05
  z: -0.000586901849601
angular_velocity_covariance: [0.0, 0.0, 0.0, 0.0, 0.0, 0.0, 0.0, 0.0, 0.0]
linear_acceleration: 
  x: 0.437904156335
  y: -0.419487692825
  z: -9.79486389756
linear_acceleration_covariance: [0.0, 0.0, 0.0, 0.0, 0.0, 0.0, 0.0, 0.0, 0.0]
---
header: 
  seq: 89664
  stamp: 
    secs: 1512506437
    nsecs: 397036547
  frame_id: imu_link
orientation: 
  x: -0.0160358268768
  y: 0.0240822732449
  z: 0.990719199181
  w: 0.132809713483
orientation_covariance: [0.0, 0.0, 0.0, 0.0, 0.0, 0.0, 0.0, 0.0, 0.0]
angular_velocity: 
  x: -0.00202575745061
  y: -0.000847258139402
  z: -6.80356170051e-05
angular_velocity_covariance: [0.0, 0.0, 0.0, 0.0, 0.0, 0.0, 0.0, 0.0, 0.0]
linear_acceleration: 
  x: 0.436306039207
  y: -0.421061178558
  z: -9.79181749821
linear_acceleration_covariance: [0.0, 0.0, 0.0, 0.0, 0.0, 0.0, 0.0, 0.0, 0.0]
---
header: 
  seq: 89665
  stamp: 
    secs: 1512506437
    nsecs: 407012020
  frame_id: imu_link
orientation: 
  x: -0.0160370077938
  y: 0.024080561474
  z: 0.990718722343
  w: 0.132813185453
orientation_covariance: [0.0, 0.0, 0.0, 0.0, 0.0, 0.0, 0.0, 0.0, 0.0]
angular_velocity: 
  x: -0.00137822225224
  y: -0.000869072508067
  z: -0.000349596550222
angular_velocity_covariance: [0.0, 0.0, 0.0, 0.0, 0.0, 0.0, 0.0, 0.0, 0.0]
linear_acceleration: 
  x: 0.4364343125
  y: -0.419165803604
  z: -9.78903363883
linear_acceleration_covariance: [0.0, 0.0, 0.0, 0.0, 0.0, 0.0, 0.0, 0.0, 0.0]
---
header: 
  seq: 89666
  stamp: 
    secs: 1512506437
    nsecs: 413703756
  frame_id: imu_link
orientation: 
  x: -0.016033494845
  y: 0.0240818094462
  z: 0.990718960762
  w: 0.132811754942
orientation_covariance: [0.0, 0.0, 0.0, 0.0, 0.0, 0.0, 0.0, 0.0, 0.0]
angular_velocity: 
  x: -0.00140868220478
  y: 5.62593195355e-05
  z: -0.000513530918397
angular_velocity_covariance: [0.0, 0.0, 0.0, 0.0, 0.0, 0.0, 0.0, 0.0, 0.0]
linear_acceleration: 
  x: 0.435112659037
  y: -0.42002925463
  z: -9.78340803266
linear_acceleration_covariance: [0.0, 0.0, 0.0, 0.0, 0.0, 0.0, 0.0, 0.0, 0.0]
---
header: 
  seq: 89667
  stamp: 
    secs: 1512506437
    nsecs: 427020744
  frame_id: imu_link
orientation: 
  x: -0.0160298068076
  y: 0.0240847114474
  z: 0.990719020367
  w: 0.132811397314
orientation_covariance: [0.0, 0.0, 0.0, 0.0, 0.0, 0.0, 0.0, 0.0, 0.0]
angular_velocity: 
  x: -0.00130999938119
  y: 0.000197091489099
  z: -1.00348843262e-05
angular_velocity_covariance: [0.0, 0.0, 0.0, 0.0, 0.0, 0.0, 0.0, 0.0, 0.0]
linear_acceleration: 
  x: 0.434280234799
  y: -0.420262631625
  z: -9.78851323664
linear_acceleration_covariance: [0.0, 0.0, 0.0, 0.0, 0.0, 0.0, 0.0, 0.0, 0.0]
---
header: 
  seq: 89668
  stamp: 
    secs: 1512506437
    nsecs: 440375431
  frame_id: imu_link
orientation: 
  x: -0.0160282906145
  y: 0.0240795966238
  z: 0.990719377995
  w: 0.132809534669
orientation_covariance: [0.0, 0.0, 0.0, 0.0, 0.0, 0.0, 0.0, 0.0, 0.0]
angular_velocity: 
  x: -0.0017842410598
  y: -0.00111701560672
  z: -0.000173986220034
angular_velocity_covariance: [0.0, 0.0, 0.0, 0.0, 0.0, 0.0, 0.0, 0.0, 0.0]
linear_acceleration: 
  x: 0.434585569091
  y: -0.420860655606
  z: -9.79423707604
linear_acceleration_covariance: [0.0, 0.0, 0.0, 0.0, 0.0, 0.0, 0.0, 0.0, 0.0]
---
header: 
  seq: 89669
  stamp: 
    secs: 1512506437
    nsecs: 443683280
  frame_id: imu_link
orientation: 
  x: -0.0160333421081
  y: 0.0240732971579
  z: 0.990719974041
  w: 0.132805883884
orientation_covariance: [0.0, 0.0, 0.0, 0.0, 0.0, 0.0, 0.0, 0.0, 0.0]
angular_velocity: 
  x: -0.000776623259299
  y: -0.00191414030269
  z: -0.000724967569113
angular_velocity_covariance: [0.0, 0.0, 0.0, 0.0, 0.0, 0.0, 0.0, 0.0, 0.0]
linear_acceleration: 
  x: 0.434759998843
  y: -0.422707462125
  z: -9.79772318602
linear_acceleration_covariance: [0.0, 0.0, 0.0, 0.0, 0.0, 0.0, 0.0, 0.0, 0.0]
---
header: 
  seq: 89670
  stamp: 
    secs: 1512506437
    nsecs: 457020860
  frame_id: imu_link
orientation: 
  x: -0.0160387102515
  y: 0.024073401466
  z: 0.990719616413
  w: 0.132807821035
orientation_covariance: [0.0, 0.0, 0.0, 0.0, 0.0, 0.0, 0.0, 0.0, 0.0]
angular_velocity: 
  x: -0.000699828844517
  y: -0.00090955698397
  z: -0.000101762358099
angular_velocity_covariance: [0.0, 0.0, 0.0, 0.0, 0.0, 0.0, 0.0, 0.0, 0.0]
linear_acceleration: 
  x: 0.435856497958
  y: -0.422110388316
  z: -9.79076499939
linear_acceleration_covariance: [0.0, 0.0, 0.0, 0.0, 0.0, 0.0, 0.0, 0.0, 0.0]
---
header: 
  seq: 89671
  stamp: 
    secs: 1512506437
    nsecs: 467038122
  frame_id: imu_link
orientation: 
  x: -0.0160373151302
  y: 0.0240774769336
  z: 0.990719556808
  w: 0.132807850838
orientation_covariance: [0.0, 0.0, 0.0, 0.0, 0.0, 0.0, 0.0, 0.0, 0.0]
angular_velocity: 
  x: -0.000819741282612
  y: -0.000510493351612
  z: -0.000534731312655
angular_velocity_covariance: [0.0, 0.0, 0.0, 0.0, 0.0, 0.0, 0.0, 0.0, 0.0]
linear_acceleration: 
  x: 0.437297690436
  y: -0.421418370344
  z: -9.78171526372
linear_acceleration_covariance: [0.0, 0.0, 0.0, 0.0, 0.0, 0.0, 0.0, 0.0, 0.0]
---
header: 
  seq: 89672
  stamp: 
    secs: 1512506437
    nsecs: 473700650
  frame_id: imu_link
orientation: 
  x: -0.0160322654992
  y: 0.0240727160126
  z: 0.990719139576
  w: 0.132812276483
orientation_covariance: [0.0, 0.0, 0.0, 0.0, 0.0, 0.0, 0.0, 0.0, 0.0]
angular_velocity: 
  x: -0.00260983267799
  y: -0.000733667984605
  z: -0.00019917730242
angular_velocity_covariance: [0.0, 0.0, 0.0, 0.0, 0.0, 0.0, 0.0, 0.0, 0.0]
linear_acceleration: 
  x: 0.436142792255
  y: -0.422558869757
  z: -9.78953299105
linear_acceleration_covariance: [0.0, 0.0, 0.0, 0.0, 0.0, 0.0, 0.0, 0.0, 0.0]
---
header: 
  seq: 89673
  stamp: 
    secs: 1512506437
    nsecs: 487007365
  frame_id: imu_link
orientation: 
  x: -0.0160330589861
  y: 0.0240751206875
  z: 0.990718305111
  w: 0.132818043232
orientation_covariance: [0.0, 0.0, 0.0, 0.0, 0.0, 0.0, 0.0, 0.0, 0.0]
angular_velocity: 
  x: -0.00235319859348
  y: 0.000100857680081
  z: -0.000494904757943
angular_velocity_covariance: [0.0, 0.0, 0.0, 0.0, 0.0, 0.0, 0.0, 0.0, 0.0]
linear_acceleration: 
  x: 0.43777350761
  y: -0.422197402194
  z: -9.79073400915
linear_acceleration_covariance: [0.0, 0.0, 0.0, 0.0, 0.0, 0.0, 0.0, 0.0, 0.0]
---
header: 
  seq: 89674
  stamp: 
    secs: 1512506437
    nsecs: 500343339
  frame_id: imu_link
orientation: 
  x: -0.016034077853
  y: 0.0240739192814
  z: 0.99071764946
  w: 0.132823064923
orientation_covariance: [0.0, 0.0, 0.0, 0.0, 0.0, 0.0, 0.0, 0.0, 0.0]
angular_velocity: 
  x: -0.00138648448046
  y: -0.000775823951699
  z: 0.000423546356615
angular_velocity_covariance: [0.0, 0.0, 0.0, 0.0, 0.0, 0.0, 0.0, 0.0, 0.0]
linear_acceleration: 
  x: 0.434196181074
  y: -0.421803994216
  z: -9.79074511886
linear_acceleration_covariance: [0.0, 0.0, 0.0, 0.0, 0.0, 0.0, 0.0, 0.0, 0.0]
---
header: 
  seq: 89675
  stamp: 
    secs: 1512506437
    nsecs: 503702506
  frame_id: imu_link
orientation: 
  x: -0.0160326510668
  y: 0.024071265012
  z: 0.990717232227
  w: 0.132826671004
orientation_covariance: [0.0, 0.0, 0.0, 0.0, 0.0, 0.0, 0.0, 0.0, 0.0]
angular_velocity: 
  x: -0.00144311098848
  y: -0.000599404680543
  z: -0.000111180357635
angular_velocity_covariance: [0.0, 0.0, 0.0, 0.0, 0.0, 0.0, 0.0, 0.0, 0.0]
linear_acceleration: 
  x: 0.438372262493
  y: -0.423458134979
  z: -9.78139659047
linear_acceleration_covariance: [0.0, 0.0, 0.0, 0.0, 0.0, 0.0, 0.0, 0.0, 0.0]
---
header: 
  seq: 89676
  stamp: 
    secs: 1512506437
    nsecs: 517023127
  frame_id: imu_link
orientation: 
  x: -0.0160274766386
  y: 0.0240766890347
  z: 0.99071598053
  w: 0.132835328579
orientation_covariance: [0.0, 0.0, 0.0, 0.0, 0.0, 0.0, 0.0, 0.0, 0.0]
angular_velocity: 
  x: -0.00288857938722
  y: 0.000543985166587
  z: -0.000271506898571
angular_velocity_covariance: [0.0, 0.0, 0.0, 0.0, 0.0, 0.0, 0.0, 0.0, 0.0]
linear_acceleration: 
  x: 0.439616111442
  y: -0.422999786362
  z: -9.78782268047
linear_acceleration_covariance: [0.0, 0.0, 0.0, 0.0, 0.0, 0.0, 0.0, 0.0, 0.0]
---
header: 
  seq: 89677
  stamp: 
    secs: 1512506437
    nsecs: 527016252
  frame_id: imu_link
orientation: 
  x: -0.0160299986601
  y: 0.0240816120058
  z: 0.990715324879
  w: 0.132839038968
orientation_covariance: [0.0, 0.0, 0.0, 0.0, 0.0, 0.0, 0.0, 0.0, 0.0]
angular_velocity: 
  x: -0.00158309948165
  y: 0.000197599554667
  z: -0.000601793348324
angular_velocity_covariance: [0.0, 0.0, 0.0, 0.0, 0.0, 0.0, 0.0, 0.0, 0.0]
linear_acceleration: 
  x: 0.437662885599
  y: -0.425051099248
  z: -9.78699354529
linear_acceleration_covariance: [0.0, 0.0, 0.0, 0.0, 0.0, 0.0, 0.0, 0.0, 0.0]
---
header: 
  seq: 89678
  stamp: 
    secs: 1512506437
    nsecs: 533667828
  frame_id: imu_link
orientation: 
  x: -0.0160339679569
  y: 0.0240755211562
  z: 0.990715146065
  w: 0.132841065526
orientation_covariance: [0.0, 0.0, 0.0, 0.0, 0.0, 0.0, 0.0, 0.0, 0.0]
angular_velocity: 
  x: -0.0012889332138
  y: -0.00125510559883
  z: -0.00109750533011
angular_velocity_covariance: [0.0, 0.0, 0.0, 0.0, 0.0, 0.0, 0.0, 0.0, 0.0]
linear_acceleration: 
  x: 0.436295368038
  y: -0.423268465921
  z: -9.78301626921
linear_acceleration_covariance: [0.0, 0.0, 0.0, 0.0, 0.0, 0.0, 0.0, 0.0, 0.0]
---
header: 
  seq: 89679
  stamp: 
    secs: 1512506437
    nsecs: 547028874
  frame_id: imu_link
orientation: 
  x: -0.0160396229476
  y: 0.0240763425827
  z: 0.990714609623
  w: 0.132844015956
orientation_covariance: [0.0, 0.0, 0.0, 0.0, 0.0, 0.0, 0.0, 0.0, 0.0]
angular_velocity: 
  x: -0.00123405142222
  y: -0.000858526676893
  z: -5.77331666136e-05
angular_velocity_covariance: [0.0, 0.0, 0.0, 0.0, 0.0, 0.0, 0.0, 0.0, 0.0]
linear_acceleration: 
  x: 0.436563645601
  y: -0.427063016519
  z: -9.78933418572
linear_acceleration_covariance: [0.0, 0.0, 0.0, 0.0, 0.0, 0.0, 0.0, 0.0, 0.0]
---
header: 
  seq: 89680
  stamp: 
    secs: 1512506437
    nsecs: 560379942
  frame_id: imu_link
orientation: 
  x: -0.0160400103778
  y: 0.0240780003369
  z: 0.990713894367
  w: 0.132849499583
orientation_covariance: [0.0, 0.0, 0.0, 0.0, 0.0, 0.0, 0.0, 0.0, 0.0]
angular_velocity: 
  x: -0.000549047952518
  y: 5.67096285522e-05
  z: 0.000117316143587
angular_velocity_covariance: [0.0, 0.0, 0.0, 0.0, 0.0, 0.0, 0.0, 0.0, 0.0]
linear_acceleration: 
  x: 0.435302912816
  y: -0.426581023224
  z: -9.79544277191
linear_acceleration_covariance: [0.0, 0.0, 0.0, 0.0, 0.0, 0.0, 0.0, 0.0, 0.0]
---
header: 
  seq: 89681
  stamp: 
    secs: 1512506437
    nsecs: 563705202
  frame_id: imu_link
orientation: 
  x: -0.0160404667258
  y: 0.0240841023624
  z: 0.990712404251
  w: 0.132859036326
orientation_covariance: [0.0, 0.0, 0.0, 0.0, 0.0, 0.0, 0.0, 0.0, 0.0]
angular_velocity: 
  x: -0.00171159603633
  y: 0.000648586195894
  z: 0.000488219200633
angular_velocity_covariance: [0.0, 0.0, 0.0, 0.0, 0.0, 0.0, 0.0, 0.0, 0.0]
linear_acceleration: 
  x: 0.43637251474
  y: -0.428876859359
  z: -9.79036563456
linear_acceleration_covariance: [0.0, 0.0, 0.0, 0.0, 0.0, 0.0, 0.0, 0.0, 0.0]
---
header: 
  seq: 89682
  stamp: 
    secs: 1512506437
    nsecs: 577023737
  frame_id: imu_link
orientation: 
  x: -0.0160375386477
  y: 0.0240867640823
  z: 0.990711271763
  w: 0.132867515087
orientation_covariance: [0.0, 0.0, 0.0, 0.0, 0.0, 0.0, 0.0, 0.0, 0.0]
angular_velocity: 
  x: -0.00135312788188
  y: 0.000171239822521
  z: -0.000547180592548
angular_velocity_covariance: [0.0, 0.0, 0.0, 0.0, 0.0, 0.0, 0.0, 0.0, 0.0]
linear_acceleration: 
  x: 0.441062127873
  y: -0.429559960328
  z: -9.78979260743
linear_acceleration_covariance: [0.0, 0.0, 0.0, 0.0, 0.0, 0.0, 0.0, 0.0, 0.0]
---
header: 
  seq: 89683
  stamp: 
    secs: 1512506437
    nsecs: 590365415
  frame_id: imu_link
orientation: 
  x: -0.0160436388105
  y: 0.0240884423256
  z: 0.990709900856
  w: 0.132876962423
orientation_covariance: [0.0, 0.0, 0.0, 0.0, 0.0, 0.0, 0.0, 0.0, 0.0]
angular_velocity: 
  x: -0.00111298053525
  y: 0.000431366905104
  z: 0.000403909623856
angular_velocity_covariance: [0.0, 0.0, 0.0, 0.0, 0.0, 0.0, 0.0, 0.0, 0.0]
linear_acceleration: 
  x: 0.43580683317
  y: -0.428909421042
  z: -9.79478145182
linear_acceleration_covariance: [0.0, 0.0, 0.0, 0.0, 0.0, 0.0, 0.0, 0.0, 0.0]
---
header: 
  seq: 89684
  stamp: 
    secs: 1512506437
    nsecs: 593668983
  frame_id: imu_link
orientation: 
  x: -0.0160423927009
  y: 0.02409273386
  z: 0.990708053112
  w: 0.132890000939
orientation_covariance: [0.0, 0.0, 0.0, 0.0, 0.0, 0.0, 0.0, 0.0, 0.0]
angular_velocity: 
  x: -0.00138618738856
  y: 0.000616783450823
  z: 0.00025496649323
angular_velocity_covariance: [0.0, 0.0, 0.0, 0.0, 0.0, 0.0, 0.0, 0.0, 0.0]
linear_acceleration: 
  x: 0.438749407902
  y: -0.428527707495
  z: -9.79167131782
linear_acceleration_covariance: [0.0, 0.0, 0.0, 0.0, 0.0, 0.0, 0.0, 0.0, 0.0]
---
header: 
  seq: 89685
  stamp: 
    secs: 1512506437
    nsecs: 607050725
  frame_id: imu_link
orientation: 
  x: -0.0160471387208
  y: 0.0240885317326
  z: 0.990706324577
  w: 0.132902920246
orientation_covariance: [0.0, 0.0, 0.0, 0.0, 0.0, 0.0, 0.0, 0.0, 0.0]
angular_velocity: 
  x: -0.000857673585415
  y: -0.00148887187243
  z: -4.74980806757e-05
angular_velocity_covariance: [0.0, 0.0, 0.0, 0.0, 0.0, 0.0, 0.0, 0.0, 0.0]
linear_acceleration: 
  x: 0.441656533889
  y: -0.4259594642
  z: -9.78232161999
linear_acceleration_covariance: [0.0, 0.0, 0.0, 0.0, 0.0, 0.0, 0.0, 0.0, 0.0]
---
header: 
  seq: 89686
  stamp: 
    secs: 1512506437
    nsecs: 620365665
  frame_id: imu_link
orientation: 
  x: -0.016046769917
  y: 0.0240893736482
  z: 0.990705609322
  w: 0.132908046246
orientation_covariance: [0.0, 0.0, 0.0, 0.0, 0.0, 0.0, 0.0, 0.0, 0.0]
angular_velocity: 
  x: -0.00149095267989
  y: 7.67613382777e-05
  z: -0.000545091927052
angular_velocity_covariance: [0.0, 0.0, 0.0, 0.0, 0.0, 0.0, 0.0, 0.0, 0.0]
linear_acceleration: 
  x: 0.438255062364
  y: -0.426946437657
  z: -9.79425461769
linear_acceleration_covariance: [0.0, 0.0, 0.0, 0.0, 0.0, 0.0, 0.0, 0.0, 0.0]
---
header: 
  seq: 89687
  stamp: 
    secs: 1512506437
    nsecs: 623683095
  frame_id: imu_link
orientation: 
  x: -0.0160489268601
  y: 0.0240939557552
  z: 0.990704834461
  w: 0.132912829518
orientation_covariance: [0.0, 0.0, 0.0, 0.0, 0.0, 0.0, 0.0, 0.0, 0.0]
angular_velocity: 
  x: -0.00139348674566
  y: 0.000462023250293
  z: -0.000373235088773
angular_velocity_covariance: [0.0, 0.0, 0.0, 0.0, 0.0, 0.0, 0.0, 0.0, 0.0]
linear_acceleration: 
  x: 0.441198039092
  y: -0.425012251809
  z: -9.79138129592
linear_acceleration_covariance: [0.0, 0.0, 0.0, 0.0, 0.0, 0.0, 0.0, 0.0, 0.0]
---
header: 
  seq: 89688
  stamp: 
    secs: 1512506437
    nsecs: 637034191
  frame_id: imu_link
orientation: 
  x: -0.0160507988185
  y: 0.0240960437804
  z: 0.990704119205
  w: 0.132917433977
orientation_covariance: [0.0, 0.0, 0.0, 0.0, 0.0, 0.0, 0.0, 0.0, 0.0]
angular_velocity: 
  x: -0.00157691992354
  y: 0.000444595876615
  z: -0.000432235596236
angular_velocity_covariance: [0.0, 0.0, 0.0, 0.0, 0.0, 0.0, 0.0, 0.0, 0.0]
linear_acceleration: 
  x: 0.440178065412
  y: -0.422214176394
  z: -9.79072348416
linear_acceleration_covariance: [0.0, 0.0, 0.0, 0.0, 0.0, 0.0, 0.0, 0.0, 0.0]
---
header: 
  seq: 89689
  stamp: 
    secs: 1512506437
    nsecs: 650368040
  frame_id: imu_link
orientation: 
  x: -0.0160560589284
  y: 0.0240919515491
  z: 0.990703582764
  w: 0.132922068238
orientation_covariance: [0.0, 0.0, 0.0, 0.0, 0.0, 0.0, 0.0, 0.0, 0.0]
angular_velocity: 
  x: -0.00156163505744
  y: -0.000952741072979
  z: -0.000867277965881
angular_velocity_covariance: [0.0, 0.0, 0.0, 0.0, 0.0, 0.0, 0.0, 0.0, 0.0]
linear_acceleration: 
  x: 0.443957888335
  y: -0.423570803516
  z: -9.79865757108
linear_acceleration_covariance: [0.0, 0.0, 0.0, 0.0, 0.0, 0.0, 0.0, 0.0, 0.0]
---
header: 
  seq: 89690
  stamp: 
    secs: 1512506437
    nsecs: 653708025
  frame_id: imu_link
orientation: 
  x: -0.0160571206361
  y: 0.0240930598229
  z: 0.990701794624
  w: 0.132934957743
orientation_covariance: [0.0, 0.0, 0.0, 0.0, 0.0, 0.0, 0.0, 0.0, 0.0]
angular_velocity: 
  x: -0.0015202392824
  y: -0.000301932625007
  z: -0.000124114696519
angular_velocity_covariance: [0.0, 0.0, 0.0, 0.0, 0.0, 0.0, 0.0, 0.0, 0.0]
linear_acceleration: 
  x: 0.438832438365
  y: -0.421428054795
  z: -9.79370088637
linear_acceleration_covariance: [0.0, 0.0, 0.0, 0.0, 0.0, 0.0, 0.0, 0.0, 0.0]
---
header: 
  seq: 89691
  stamp: 
    secs: 1512506437
    nsecs: 667017590
  frame_id: imu_link
orientation: 
  x: -0.0160543061793
  y: 0.0240900572389
  z: 0.990700364113
  w: 0.132946744561
orientation_covariance: [0.0, 0.0, 0.0, 0.0, 0.0, 0.0, 0.0, 0.0, 0.0]
angular_velocity: 
  x: -0.00118345860392
  y: -0.000676394556649
  z: -0.000520277884789
angular_velocity_covariance: [0.0, 0.0, 0.0, 0.0, 0.0, 0.0, 0.0, 0.0, 0.0]
linear_acceleration: 
  x: 0.441471834965
  y: -0.420428180918
  z: -9.78989142537
linear_acceleration_covariance: [0.0, 0.0, 0.0, 0.0, 0.0, 0.0, 0.0, 0.0, 0.0]
---
header: 
  seq: 89692
  stamp: 
    secs: 1512506437
    nsecs: 680331307
  frame_id: imu_link
orientation: 
  x: -0.016054706648
  y: 0.0240956265479
  z: 0.990698933601
  w: 0.132955655456
orientation_covariance: [0.0, 0.0, 0.0, 0.0, 0.0, 0.0, 0.0, 0.0, 0.0]
angular_velocity: 
  x: -0.00179230968934
  y: 0.000205963064218
  z: -0.000458833557786
angular_velocity_covariance: [0.0, 0.0, 0.0, 0.0, 0.0, 0.0, 0.0, 0.0, 0.0]
linear_acceleration: 
  x: 0.438551808558
  y: -0.422904586382
  z: -9.78095746458
linear_acceleration_covariance: [0.0, 0.0, 0.0, 0.0, 0.0, 0.0, 0.0, 0.0, 0.0]
---
header: 
  seq: 89693
  stamp: 
    secs: 1512506437
    nsecs: 683683805
  frame_id: imu_link
orientation: 
  x: -0.0160512197763
  y: 0.0240961350501
  z: 0.990697681904
  w: 0.132965624332
orientation_covariance: [0.0, 0.0, 0.0, 0.0, 0.0, 0.0, 0.0, 0.0, 0.0]
angular_velocity: 
  x: -0.00222541880794
  y: -0.000328465801431
  z: -0.000268270639936
angular_velocity_covariance: [0.0, 0.0, 0.0, 0.0, 0.0, 0.0, 0.0, 0.0, 0.0]
linear_acceleration: 
  x: 0.436892990023
  y: -0.424214691594
  z: -9.79321966052
linear_acceleration_covariance: [0.0, 0.0, 0.0, 0.0, 0.0, 0.0, 0.0, 0.0, 0.0]
---
header: 
  seq: 89694
  stamp: 
    secs: 1512506437
    nsecs: 697025737
  frame_id: imu_link
orientation: 
  x: -0.0160485934466
  y: 0.0240939930081
  z: 0.990696489811
  w: 0.13297496736
orientation_covariance: [0.0, 0.0, 0.0, 0.0, 0.0, 0.0, 0.0, 0.0, 0.0]
angular_velocity: 
  x: -0.00218345993198
  y: -0.000765549426433
  z: -0.00112597655971
angular_velocity_covariance: [0.0, 0.0, 0.0, 0.0, 0.0, 0.0, 0.0, 0.0, 0.0]
linear_acceleration: 
  x: 0.441533157639
  y: -0.421619478017
  z: -9.79232503653
linear_acceleration_covariance: [0.0, 0.0, 0.0, 0.0, 0.0, 0.0, 0.0, 0.0, 0.0]
---
header: 
  seq: 89695
  stamp: 
    secs: 1512506437
    nsecs: 713680139
  frame_id: imu_link
orientation: 
  x: -0.0160442627966
  y: 0.0240948144346
  z: 0.99069494009
  w: 0.132986992598
orientation_covariance: [0.0, 0.0, 0.0, 0.0, 0.0, 0.0, 0.0, 0.0, 0.0]
angular_velocity: 
  x: -0.00311637320556
  y: -0.000477320223581
  z: -0.000267235707724
angular_velocity_covariance: [0.0, 0.0, 0.0, 0.0, 0.0, 0.0, 0.0, 0.0, 0.0]
linear_acceleration: 
  x: 0.440301368572
  y: -0.421986354254
  z: -9.78356415331
linear_acceleration_covariance: [0.0, 0.0, 0.0, 0.0, 0.0, 0.0, 0.0, 0.0, 0.0]
---
header: 
  seq: 89696
  stamp: 
    secs: 1512506437
    nsecs: 717023709
  frame_id: imu_link
orientation: 
  x: -0.0160429775715
  y: 0.0240942593664
  z: 0.990693092346
  w: 0.133000984788
orientation_covariance: [0.0, 0.0, 0.0, 0.0, 0.0, 0.0, 0.0, 0.0, 0.0]
angular_velocity: 
  x: -0.00149810209405
  y: -0.00026410992723
  z: -0.000464202254079
angular_velocity_covariance: [0.0, 0.0, 0.0, 0.0, 0.0, 0.0, 0.0, 0.0, 0.0]
linear_acceleration: 
  x: 0.440871764459
  y: -0.422412397005
  z: -9.79086147845
linear_acceleration_covariance: [0.0, 0.0, 0.0, 0.0, 0.0, 0.0, 0.0, 0.0, 0.0]
---
header: 
  seq: 89697
  stamp: 
    secs: 1512506437
    nsecs: 727020711
  frame_id: imu_link
orientation: 
  x: -0.0160449650139
  y: 0.0240980423987
  z: 0.99069237709
  w: 0.133005738258
orientation_covariance: [0.0, 0.0, 0.0, 0.0, 0.0, 0.0, 0.0, 0.0, 0.0]
angular_velocity: 
  x: -0.00152557063848
  y: -0.000251586170634
  z: -0.00148931634612
angular_velocity_covariance: [0.0, 0.0, 0.0, 0.0, 0.0, 0.0, 0.0, 0.0, 0.0]
linear_acceleration: 
  x: 0.439559758902
  y: -0.420604766831
  z: -9.79076032162
linear_acceleration_covariance: [0.0, 0.0, 0.0, 0.0, 0.0, 0.0, 0.0, 0.0, 0.0]
---
header: 
  seq: 89698
  stamp: 
    secs: 1512506437
    nsecs: 740353267
  frame_id: imu_link
orientation: 
  x: -0.0160373803228
  y: 0.0240987688303
  z: 0.990690350533
  w: 0.133021116257
orientation_covariance: [0.0, 0.0, 0.0, 0.0, 0.0, 0.0, 0.0, 0.0, 0.0]
angular_velocity: 
  x: -0.00280882231891
  y: 0.000568420859054
  z: 0.000297237565974
angular_velocity_covariance: [0.0, 0.0, 0.0, 0.0, 0.0, 0.0, 0.0, 0.0, 0.0]
linear_acceleration: 
  x: 0.4394639742
  y: -0.420012663156
  z: -9.78413659573
linear_acceleration_covariance: [0.0, 0.0, 0.0, 0.0, 0.0, 0.0, 0.0, 0.0, 0.0]
---
header: 
  seq: 89699
  stamp: 
    secs: 1512506437
    nsecs: 743682018
  frame_id: imu_link
orientation: 
  x: -0.0160373300314
  y: 0.0241015348583
  z: 0.990688621998
  w: 0.133034110069
orientation_covariance: [0.0, 0.0, 0.0, 0.0, 0.0, 0.0, 0.0, 0.0, 0.0]
angular_velocity: 
  x: -0.00208605523221
  y: 0.000524105911609
  z: 0.000234251696384
angular_velocity_covariance: [0.0, 0.0, 0.0, 0.0, 0.0, 0.0, 0.0, 0.0, 0.0]
linear_acceleration: 
  x: 0.440180148482
  y: -0.417534795888
  z: -9.78841500342
linear_acceleration_covariance: [0.0, 0.0, 0.0, 0.0, 0.0, 0.0, 0.0, 0.0, 0.0]
---
header: 
  seq: 89700
  stamp: 
    secs: 1512506437
    nsecs: 757029381
  frame_id: imu_link
orientation: 
  x: -0.0160350073129
  y: 0.0240991283208
  z: 0.990686655045
  w: 0.133049190044
orientation_covariance: [0.0, 0.0, 0.0, 0.0, 0.0, 0.0, 0.0, 0.0, 0.0]
angular_velocity: 
  x: -0.00146946904715
  y: -0.000350032059941
  z: 0.000147555925651
angular_velocity_covariance: [0.0, 0.0, 0.0, 0.0, 0.0, 0.0, 0.0, 0.0, 0.0]
linear_acceleration: 
  x: 0.439770770296
  y: -0.419680577852
  z: -9.79320504248
linear_acceleration_covariance: [0.0, 0.0, 0.0, 0.0, 0.0, 0.0, 0.0, 0.0, 0.0]
---
header: 
  seq: 89701
  stamp: 
    secs: 1512506437
    nsecs: 770358230
  frame_id: imu_link
orientation: 
  x: -0.0160317961127
  y: 0.0241008847952
  z: 0.990684270859
  w: 0.133067071438
orientation_covariance: [0.0, 0.0, 0.0, 0.0, 0.0, 0.0, 0.0, 0.0, 0.0]
angular_velocity: 
  x: -0.00163282931317
  y: 8.23211012175e-05
  z: 0.000966344960034
angular_velocity_covariance: [0.0, 0.0, 0.0, 0.0, 0.0, 0.0, 0.0, 0.0, 0.0]
linear_acceleration: 
  x: 0.441220733598
  y: -0.418471190929
  z: -9.77966698408
linear_acceleration_covariance: [0.0, 0.0, 0.0, 0.0, 0.0, 0.0, 0.0, 0.0, 0.0]
---
header: 
  seq: 89702
  stamp: 
    secs: 1512506437
    nsecs: 773690471
  frame_id: imu_link
orientation: 
  x: -0.0160277858377
  y: 0.0240988843143
  z: 0.990683555603
  w: 0.133073076606
orientation_covariance: [0.0, 0.0, 0.0, 0.0, 0.0, 0.0, 0.0, 0.0, 0.0]
angular_velocity: 
  x: -0.00232081860304
  y: -0.000188414589502
  z: -0.000673015718348
angular_velocity_covariance: [0.0, 0.0, 0.0, 0.0, 0.0, 0.0, 0.0, 0.0, 0.0]
linear_acceleration: 
  x: 0.438683809452
  y: -0.418351542279
  z: -9.78777414858
linear_acceleration_covariance: [0.0, 0.0, 0.0, 0.0, 0.0, 0.0, 0.0, 0.0, 0.0]
---
header: 
  seq: 89703
  stamp: 
    secs: 1512506437
    nsecs: 787005678
  frame_id: imu_link
orientation: 
  x: -0.0160322953016
  y: 0.0241021122783
  z: 0.990682303905
  w: 0.133081674576
orientation_covariance: [0.0, 0.0, 0.0, 0.0, 0.0, 0.0, 0.0, 0.0, 0.0]
angular_velocity: 
  x: -0.00082062947331
  y: 3.92274669139e-05
  z: 0.000255330756772
angular_velocity_covariance: [0.0, 0.0, 0.0, 0.0, 0.0, 0.0, 0.0, 0.0, 0.0]
linear_acceleration: 
  x: 0.436551549174
  y: -0.42248526793
  z: -9.80137594163
linear_acceleration_covariance: [0.0, 0.0, 0.0, 0.0, 0.0, 0.0, 0.0, 0.0, 0.0]
---
header: 
  seq: 89704
  stamp: 
    secs: 1512506437
    nsecs: 800364645
  frame_id: imu_link
orientation: 
  x: -0.0160361938179
  y: 0.0241005402058
  z: 0.990681171417
  w: 0.133089497685
orientation_covariance: [0.0, 0.0, 0.0, 0.0, 0.0, 0.0, 0.0, 0.0, 0.0]
angular_velocity: 
  x: -0.00150092015974
  y: -0.000328086083755
  z: -0.000904057756998
angular_velocity_covariance: [0.0, 0.0, 0.0, 0.0, 0.0, 0.0, 0.0, 0.0, 0.0]
linear_acceleration: 
  x: 0.437818202265
  y: -0.424192252904
  z: -9.79322960079
linear_acceleration_covariance: [0.0, 0.0, 0.0, 0.0, 0.0, 0.0, 0.0, 0.0, 0.0]
---
header: 
  seq: 89705
  stamp: 
    secs: 1512506437
    nsecs: 803699289
  frame_id: imu_link
orientation: 
  x: -0.0160360597074
  y: 0.0241074673831
  z: 0.990678071976
  w: 0.13311098516
orientation_covariance: [0.0, 0.0, 0.0, 0.0, 0.0, 0.0, 0.0, 0.0, 0.0]
angular_velocity: 
  x: -0.00102416158188
  y: 0.000375016301405
  z: 0.00103296560701
angular_velocity_covariance: [0.0, 0.0, 0.0, 0.0, 0.0, 0.0, 0.0, 0.0, 0.0]
linear_acceleration: 
  x: 0.437485020608
  y: -0.422401506566
  z: -9.78569195509
linear_acceleration_covariance: [0.0, 0.0, 0.0, 0.0, 0.0, 0.0, 0.0, 0.0, 0.0]
---
header: 
  seq: 89706
  stamp: 
    secs: 1512506437
    nsecs: 817020264
  frame_id: imu_link
orientation: 
  x: -0.0160347055644
  y: 0.0241101980209
  z: 0.990676224232
  w: 0.13312445581
orientation_covariance: [0.0, 0.0, 0.0, 0.0, 0.0, 0.0, 0.0, 0.0, 0.0]
angular_velocity: 
  x: -0.00160310405772
  y: 0.000450928724604
  z: 0.000451983592939
angular_velocity_covariance: [0.0, 0.0, 0.0, 0.0, 0.0, 0.0, 0.0, 0.0, 0.0]
linear_acceleration: 
  x: 0.436091190577
  y: -0.42399257049
  z: -9.78779461384
linear_acceleration_covariance: [0.0, 0.0, 0.0, 0.0, 0.0, 0.0, 0.0, 0.0, 0.0]
---
header: 
  seq: 89707
  stamp: 
    secs: 1512506437
    nsecs: 830374815
  frame_id: imu_link
orientation: 
  x: -0.0160283762962
  y: 0.0241102911532
  z: 0.990674734116
  w: 0.13313703239
orientation_covariance: [0.0, 0.0, 0.0, 0.0, 0.0, 0.0, 0.0, 0.0, 0.0]
angular_velocity: 
  x: -0.00256121414714
  y: 0.000311164127197
  z: 0.000843281392008
angular_velocity_covariance: [0.0, 0.0, 0.0, 0.0, 0.0, 0.0, 0.0, 0.0, 0.0]
linear_acceleration: 
  x: 0.435780995786
  y: -0.425276180506
  z: -9.80176302731
linear_acceleration_covariance: [0.0, 0.0, 0.0, 0.0, 0.0, 0.0, 0.0, 0.0, 0.0]
---
header: 
  seq: 89708
  stamp: 
    secs: 1512506437
    nsecs: 833674037
  frame_id: imu_link
orientation: 
  x: -0.0160285495222
  y: 0.0241107400507
  z: 0.990673899651
  w: 0.133142501116
orientation_covariance: [0.0, 0.0, 0.0, 0.0, 0.0, 0.0, 0.0, 0.0, 0.0]
angular_velocity: 
  x: -0.00150973035488
  y: -0.000429149658885
  z: -0.000570794974919
angular_velocity_covariance: [0.0, 0.0, 0.0, 0.0, 0.0, 0.0, 0.0, 0.0, 0.0]
linear_acceleration: 
  x: 0.438120028228
  y: -0.423636803962
  z: -9.79252559602
linear_acceleration_covariance: [0.0, 0.0, 0.0, 0.0, 0.0, 0.0, 0.0, 0.0, 0.0]
---
header: 
  seq: 89709
  stamp: 
    secs: 1512506437
    nsecs: 847008438
  frame_id: imu_link
orientation: 
  x: -0.0160222630948
  y: 0.0241098329425
  z: 0.990672528744
  w: 0.133153855801
orientation_covariance: [0.0, 0.0, 0.0, 0.0, 0.0, 0.0, 0.0, 0.0, 0.0]
angular_velocity: 
  x: -0.00269535044208
  y: -0.000585589674301
  z: -2.80130188912e-06
angular_velocity_covariance: [0.0, 0.0, 0.0, 0.0, 0.0, 0.0, 0.0, 0.0, 0.0]
linear_acceleration: 
  x: 0.43742596373
  y: -0.426771203913
  z: -9.7742963165
linear_acceleration_covariance: [0.0, 0.0, 0.0, 0.0, 0.0, 0.0, 0.0, 0.0, 0.0]
---
header: 
  seq: 89710
  stamp: 
    secs: 1512506437
    nsecs: 860477150
  frame_id: imu_link
orientation: 
  x: -0.0160232167691
  y: 0.024116197601
  z: 0.99067145586
  w: 0.133160352707
orientation_covariance: [0.0, 0.0, 0.0, 0.0, 0.0, 0.0, 0.0, 0.0, 0.0]
angular_velocity: 
  x: -0.00194391107652
  y: 0.000954615417868
  z: -0.000536598963663
angular_velocity_covariance: [0.0, 0.0, 0.0, 0.0, 0.0, 0.0, 0.0, 0.0, 0.0]
linear_acceleration: 
  x: 0.439393917248
  y: -0.431448903345
  z: -9.78065691769
linear_acceleration_covariance: [0.0, 0.0, 0.0, 0.0, 0.0, 0.0, 0.0, 0.0, 0.0]
---
header: 
  seq: 89711
  stamp: 
    secs: 1512506437
    nsecs: 863680099
  frame_id: imu_link
orientation: 
  x: -0.0160219389945
  y: 0.0241125188768
  z: 0.990670323372
  w: 0.133169785142
orientation_covariance: [0.0, 0.0, 0.0, 0.0, 0.0, 0.0, 0.0, 0.0, 0.0]
angular_velocity: 
  x: -0.00249065971002
  y: -0.000832507270388
  z: 0.000402636622312
angular_velocity_covariance: [0.0, 0.0, 0.0, 0.0, 0.0, 0.0, 0.0, 0.0, 0.0]
linear_acceleration: 
  x: 0.439976848103
  y: -0.427181057185
  z: -9.79541821361
linear_acceleration_covariance: [0.0, 0.0, 0.0, 0.0, 0.0, 0.0, 0.0, 0.0, 0.0]
---
header: 
  seq: 89712
  stamp: 
    secs: 1512506437
    nsecs: 877043162
  frame_id: imu_link
orientation: 
  x: -0.0160250551999
  y: 0.0241165347397
  z: 0.990668356419
  w: 0.133183479309
orientation_covariance: [0.0, 0.0, 0.0, 0.0, 0.0, 0.0, 0.0, 0.0, 0.0]
angular_velocity: 
  x: -0.00122415530495
  y: 7.98422115622e-05
  z: 0.000346496060956
angular_velocity_covariance: [0.0, 0.0, 0.0, 0.0, 0.0, 0.0, 0.0, 0.0, 0.0]
linear_acceleration: 
  x: 0.438120028228
  y: -0.427711765096
  z: -9.78559021354
linear_acceleration_covariance: [0.0, 0.0, 0.0, 0.0, 0.0, 0.0, 0.0, 0.0, 0.0]
---
header: 
  seq: 89713
  stamp: 
    secs: 1512506437
    nsecs: 890419834
  frame_id: imu_link
orientation: 
  x: -0.016032570973
  y: 0.0241215024143
  z: 0.990666925907
  w: 0.133192241192
orientation_covariance: [0.0, 0.0, 0.0, 0.0, 0.0, 0.0, 0.0, 0.0, 0.0]
angular_velocity: 
  x: -0.000108149281004
  y: -0.0002136524854
  z: -0.000206063385122
angular_velocity_covariance: [0.0, 0.0, 0.0, 0.0, 0.0, 0.0, 0.0, 0.0, 0.0]
linear_acceleration: 
  x: 0.440364774317
  y: -0.428884862736
  z: -9.79025804579
linear_acceleration_covariance: [0.0, 0.0, 0.0, 0.0, 0.0, 0.0, 0.0, 0.0, 0.0]
---
header: 
  seq: 89714
  stamp: 
    secs: 1512506437
    nsecs: 893692744
  frame_id: imu_link
orientation: 
  x: -0.0160305462778
  y: 0.0241278987378
  z: 0.990665912628
  w: 0.133199036121
orientation_covariance: [0.0, 0.0, 0.0, 0.0, 0.0, 0.0, 0.0, 0.0, 0.0]
angular_velocity: 
  x: -0.0022092575673
  y: 0.000932790047955
  z: -0.000564436952118
angular_velocity_covariance: [0.0, 0.0, 0.0, 0.0, 0.0, 0.0, 0.0, 0.0, 0.0]
linear_acceleration: 
  x: 0.441148118488
  y: -0.430566485412
  z: -9.79683265507
linear_acceleration_covariance: [0.0, 0.0, 0.0, 0.0, 0.0, 0.0, 0.0, 0.0, 0.0]
---
header: 
  seq: 89715
  stamp: 
    secs: 1512506437
    nsecs: 907023377
  frame_id: imu_link
orientation: 
  x: -0.0160348825157
  y: 0.0241238027811
  z: 0.990665078163
  w: 0.133205384016
orientation_covariance: [0.0, 0.0, 0.0, 0.0, 0.0, 0.0, 0.0, 0.0, 0.0]
angular_velocity: 
  x: -0.000653142225929
  y: -0.00143888313323
  z: -0.000656631309539
angular_velocity_covariance: [0.0, 0.0, 0.0, 0.0, 0.0, 0.0, 0.0, 0.0, 0.0]
linear_acceleration: 
  x: 0.445116587207
  y: -0.428374656625
  z: -9.78572879255
linear_acceleration_covariance: [0.0, 0.0, 0.0, 0.0, 0.0, 0.0, 0.0, 0.0, 0.0]
---
header: 
  seq: 89716
  stamp: 
    secs: 1512506437
    nsecs: 920376473
  frame_id: imu_link
orientation: 
  x: -0.0160365756601
  y: 0.0241259802133
  z: 0.990663766861
  w: 0.133214130998
orientation_covariance: [0.0, 0.0, 0.0, 0.0, 0.0, 0.0, 0.0, 0.0, 0.0]
angular_velocity: 
  x: -0.0013855684083
  y: -0.00034522547503
  z: -0.000228524324484
angular_velocity_covariance: [0.0, 0.0, 0.0, 0.0, 0.0, 0.0, 0.0, 0.0, 0.0]
linear_acceleration: 
  x: 0.443285239264
  y: -0.430689898208
  z: -9.79180697322
linear_acceleration_covariance: [0.0, 0.0, 0.0, 0.0, 0.0, 0.0, 0.0, 0.0, 0.0]
---
header: 
  seq: 89717
  stamp: 
    secs: 1512506437
    nsecs: 923677968
  frame_id: imu_link
orientation: 
  x: -0.0160392299294
  y: 0.0241219811141
  z: 0.990662693977
  w: 0.133222788572
orientation_covariance: [0.0, 0.0, 0.0, 0.0, 0.0, 0.0, 0.0, 0.0, 0.0]
angular_velocity: 
  x: -0.0016842756886
  y: -0.000701124081388
  z: -0.000515495717991
angular_velocity_covariance: [0.0, 0.0, 0.0, 0.0, 0.0, 0.0, 0.0, 0.0, 0.0]
linear_acceleration: 
  x: 0.440937837996
  y: -0.429809782617
  z: -9.78795482755
linear_acceleration_covariance: [0.0, 0.0, 0.0, 0.0, 0.0, 0.0, 0.0, 0.0, 0.0]
---
header: 
  seq: 89718
  stamp: 
    secs: 1512506437
    nsecs: 937039649
  frame_id: imu_link
orientation: 
  x: -0.016040975228
  y: 0.0241202786565
  z: 0.990660786629
  w: 0.13323687017
orientation_covariance: [0.0, 0.0, 0.0, 0.0, 0.0, 0.0, 0.0, 0.0, 0.0]
angular_velocity: 
  x: -0.00127756420989
  y: -0.000606016779784
  z: -0.000547477626242
angular_velocity_covariance: [0.0, 0.0, 0.0, 0.0, 0.0, 0.0, 0.0, 0.0, 0.0]
linear_acceleration: 
  x: 0.437368916832
  y: -0.425960524008
  z: -9.78771275282
linear_acceleration_covariance: [0.0, 0.0, 0.0, 0.0, 0.0, 0.0, 0.0, 0.0, 0.0]
---
header: 
  seq: 89719
  stamp: 
    secs: 1512506437
    nsecs: 950358510
  frame_id: imu_link
orientation: 
  x: -0.0160375572741
  y: 0.024119226262
  z: 0.99065965414
  w: 0.133246079087
orientation_covariance: [0.0, 0.0, 0.0, 0.0, 0.0, 0.0, 0.0, 0.0, 0.0]
angular_velocity: 
  x: -0.00221329415217
  y: -0.000488739460707
  z: 0.00011259164603
angular_velocity_covariance: [0.0, 0.0, 0.0, 0.0, 0.0, 0.0, 0.0, 0.0, 0.0]
linear_acceleration: 
  x: 0.436885900274
  y: -0.423119106106
  z: -9.78667019427
linear_acceleration_covariance: [0.0, 0.0, 0.0, 0.0, 0.0, 0.0, 0.0, 0.0, 0.0]
---
header: 
  seq: 89720
  stamp: 
    secs: 1512506437
    nsecs: 953720290
  frame_id: imu_link
orientation: 
  x: -0.016035746783
  y: 0.0241179075092
  z: 0.990659177303
  w: 0.133250117302
orientation_covariance: [0.0, 0.0, 0.0, 0.0, 0.0, 0.0, 0.0, 0.0, 0.0]
angular_velocity: 
  x: -0.002045258414
  y: -0.000139862153446
  z: -0.00106784468517
angular_velocity_covariance: [0.0, 0.0, 0.0, 0.0, 0.0, 0.0, 0.0, 0.0, 0.0]
linear_acceleration: 
  x: 0.435970409028
  y: -0.420473387204
  z: -9.78711048961
linear_acceleration_covariance: [0.0, 0.0, 0.0, 0.0, 0.0, 0.0, 0.0, 0.0, 0.0]
---
header: 
  seq: 89721
  stamp: 
    secs: 1512506437
    nsecs: 967040954
  frame_id: imu_link
orientation: 
  x: -0.0160326454788
  y: 0.0241182018071
  z: 0.990657448769
  w: 0.13326305151
orientation_covariance: [0.0, 0.0, 0.0, 0.0, 0.0, 0.0, 0.0, 0.0, 0.0]
angular_velocity: 
  x: -0.00232066400349
  y: 0.000133825698867
  z: -0.000180477683898
angular_velocity_covariance: [0.0, 0.0, 0.0, 0.0, 0.0, 0.0, 0.0, 0.0, 0.0]
linear_acceleration: 
  x: 0.433717001751
  y: -0.421446583159
  z: -9.78147377372
linear_acceleration_covariance: [0.0, 0.0, 0.0, 0.0, 0.0, 0.0, 0.0, 0.0, 0.0]
---
header: 
  seq: 89722
  stamp: 
    secs: 1512506437
    nsecs: 980344036
  frame_id: imu_link
orientation: 
  x: -0.0160333383828
  y: 0.0241189096123
  z: 0.990655839443
  w: 0.133275195956
orientation_covariance: [0.0, 0.0, 0.0, 0.0, 0.0, 0.0, 0.0, 0.0, 0.0]
angular_velocity: 
  x: -0.000758892332669
  y: 7.06148712197e-05
  z: -0.000269736396149
angular_velocity_covariance: [0.0, 0.0, 0.0, 0.0, 0.0, 0.0, 0.0, 0.0, 0.0]
linear_acceleration: 
  x: 0.435915116295
  y: -0.421505822763
  z: -9.79701976597
linear_acceleration_covariance: [0.0, 0.0, 0.0, 0.0, 0.0, 0.0, 0.0, 0.0, 0.0]
---
header: 
  seq: 89723
  stamp: 
    secs: 1512506437
    nsecs: 983693707
  frame_id: imu_link
orientation: 
  x: -0.0160352569073
  y: 0.0241205319762
  z: 0.990654885769
  w: 0.13328102231
orientation_covariance: [0.0, 0.0, 0.0, 0.0, 0.0, 0.0, 0.0, 0.0, 0.0]
angular_velocity: 
  x: -0.00124232820235
  y: 0.000251189281698
  z: -0.00127953151241
angular_velocity_covariance: [0.0, 0.0, 0.0, 0.0, 0.0, 0.0, 0.0, 0.0, 0.0]
linear_acceleration: 
  x: 0.433785523809
  y: -0.422234203108
  z: -9.79866283357
linear_acceleration_covariance: [0.0, 0.0, 0.0, 0.0, 0.0, 0.0, 0.0, 0.0, 0.0]
---
header: 
  seq: 89724
  stamp: 
    secs: 1512506437
    nsecs: 997012780
  frame_id: imu_link
orientation: 
  x: -0.0160366576165
  y: 0.0241220183671
  z: 0.990652918816
  w: 0.133295878768
orientation_covariance: [0.0, 0.0, 0.0, 0.0, 0.0, 0.0, 0.0, 0.0, 0.0]
angular_velocity: 
  x: -0.000802269845735
  y: 2.22290400416e-05
  z: -0.000129275111249
angular_velocity_covariance: [0.0, 0.0, 0.0, 0.0, 0.0, 0.0, 0.0, 0.0, 0.0]
linear_acceleration: 
  x: 0.434025296196
  y: -0.417377834693
  z: -9.78171234012
linear_acceleration_covariance: [0.0, 0.0, 0.0, 0.0, 0.0, 0.0, 0.0, 0.0, 0.0]
---
header: 
  seq: 89725
  stamp: 
    secs: 1512506438
    nsecs:  10367268
  frame_id: imu_link
orientation: 
  x: -0.0160339847207
  y: 0.024118764326
  z: 0.990652263165
  w: 0.133301317692
orientation_covariance: [0.0, 0.0, 0.0, 0.0, 0.0, 0.0, 0.0, 0.0, 0.0]
angular_velocity: 
  x: -0.00168579467572
  y: -0.000211697100895
  z: -0.00111609394662
angular_velocity_covariance: [0.0, 0.0, 0.0, 0.0, 0.0, 0.0, 0.0, 0.0, 0.0]
linear_acceleration: 
  x: 0.434999442324
  y: -0.418805432394
  z: -9.80029420674
linear_acceleration_covariance: [0.0, 0.0, 0.0, 0.0, 0.0, 0.0, 0.0, 0.0, 0.0]
---
header: 
  seq: 89726
  stamp: 
    secs: 1512506438
    nsecs:  13702964
  frame_id: imu_link
orientation: 
  x: -0.0160312596709
  y: 0.0241217371076
  z: 0.990651011467
  w: 0.133310839534
orientation_covariance: [0.0, 0.0, 0.0, 0.0, 0.0, 0.0, 0.0, 0.0, 0.0]
angular_velocity: 
  x: -0.00205306848511
  y: 0.000164967772434
  z: -0.000538405263796
angular_velocity_covariance: [0.0, 0.0, 0.0, 0.0, 0.0, 0.0, 0.0, 0.0, 0.0]
linear_acceleration: 
  x: 0.435261470675
  y: -0.421309356317
  z: -9.8081534493
linear_acceleration_covariance: [0.0, 0.0, 0.0, 0.0, 0.0, 0.0, 0.0, 0.0, 0.0]
---
header: 
  seq: 89727
  stamp: 
    secs: 1512506438
    nsecs:  27038626
  frame_id: imu_link
orientation: 
  x: -0.0160248242319
  y: 0.0241206195205
  z: 0.990649461746
  w: 0.133323147893
orientation_covariance: [0.0, 0.0, 0.0, 0.0, 0.0, 0.0, 0.0, 0.0, 0.0]
angular_velocity: 
  x: -0.00221135141328
  y: -0.000721775519196
  z: -0.000713113404345
angular_velocity_covariance: [0.0, 0.0, 0.0, 0.0, 0.0, 0.0, 0.0, 0.0, 0.0]
linear_acceleration: 
  x: 0.435077210292
  y: -0.420609115697
  z: -9.79224785328
linear_acceleration_covariance: [0.0, 0.0, 0.0, 0.0, 0.0, 0.0, 0.0, 0.0, 0.0]
---
header: 
  seq: 89728
  stamp: 
    secs: 1512506438
    nsecs:  40437589
  frame_id: imu_link
orientation: 
  x: -0.0160213075578
  y: 0.0241206865758
  z: 0.990646898746
  w: 0.133342623711
orientation_covariance: [0.0, 0.0, 0.0, 0.0, 0.0, 0.0, 0.0, 0.0, 0.0]
angular_velocity: 
  x: -0.0025105883833
  y: -0.000641790858936
  z: 0.000209291873034
angular_velocity_covariance: [0.0, 0.0, 0.0, 0.0, 0.0, 0.0, 0.0, 0.0, 0.0]
linear_acceleration: 
  x: 0.432414169014
  y: -0.42032976497
  z: -9.79007619739
linear_acceleration_covariance: [0.0, 0.0, 0.0, 0.0, 0.0, 0.0, 0.0, 0.0, 0.0]
---
header: 
  seq: 89729
  stamp: 
    secs: 1512506438
    nsecs:  43737700
  frame_id: imu_link
orientation: 
  x: -0.0160147771239
  y: 0.0241222977638
  z: 0.990645825863
  w: 0.133351236582
orientation_covariance: [0.0, 0.0, 0.0, 0.0, 0.0, 0.0, 0.0, 0.0, 0.0]
angular_velocity: 
  x: -0.00258466787636
  y: -0.000419210555265
  z: -0.000470716971904
angular_velocity_covariance: [0.0, 0.0, 0.0, 0.0, 0.0, 0.0, 0.0, 0.0, 0.0]
linear_acceleration: 
  x: 0.434132775329
  y: -0.422280359566
  z: -9.79964224219
linear_acceleration_covariance: [0.0, 0.0, 0.0, 0.0, 0.0, 0.0, 0.0, 0.0, 0.0]
---
header: 
  seq: 89730
  stamp: 
    secs: 1512506438
    nsecs:  57050163
  frame_id: imu_link
orientation: 
  x: -0.0160069558769
  y: 0.0241218563169
  z: 0.990643680096
  w: 0.133368045092
orientation_covariance: [0.0, 0.0, 0.0, 0.0, 0.0, 0.0, 0.0, 0.0, 0.0]
angular_velocity: 
  x: -0.0027931353543
  y: -8.21766443551e-05
  z: 0.000630115100648
angular_velocity_covariance: [0.0, 0.0, 0.0, 0.0, 0.0, 0.0, 0.0, 0.0, 0.0]
linear_acceleration: 
  x: 0.432104047313
  y: -0.421688292436
  z: -9.78543526232
linear_acceleration_covariance: [0.0, 0.0, 0.0, 0.0, 0.0, 0.0, 0.0, 0.0, 0.0]
---
header: 
  seq: 89731
  stamp: 
    secs: 1512506438
    nsecs:  70353702
  frame_id: imu_link
orientation: 
  x: -0.0160044636577
  y: 0.0241197478026
  z: 0.990642249584
  w: 0.133379384875
orientation_covariance: [0.0, 0.0, 0.0, 0.0, 0.0, 0.0, 0.0, 0.0, 0.0]
angular_velocity: 
  x: -0.00173772743437
  y: -0.000265532260528
  z: -2.69765150733e-05
angular_velocity_covariance: [0.0, 0.0, 0.0, 0.0, 0.0, 0.0, 0.0, 0.0, 0.0]
linear_acceleration: 
  x: 0.434476408884
  y: -0.421227093302
  z: -9.77565696359
linear_acceleration_covariance: [0.0, 0.0, 0.0, 0.0, 0.0, 0.0, 0.0, 0.0, 0.0]
---
header: 
  seq: 89732
  stamp: 
    secs: 1512506438
    nsecs:  73669716
  frame_id: imu_link
orientation: 
  x: -0.0160073116422
  y: 0.0241217277944
  z: 0.99064040184
  w: 0.133392438293
orientation_covariance: [0.0, 0.0, 0.0, 0.0, 0.0, 0.0, 0.0, 0.0, 0.0]
angular_velocity: 
  x: -0.00112659612205
  y: -0.000381723657483
  z: -0.000823601556476
angular_velocity_covariance: [0.0, 0.0, 0.0, 0.0, 0.0, 0.0, 0.0, 0.0, 0.0]
linear_acceleration: 
  x: 0.437502196804
  y: -0.421078062393
  z: -9.79074979663
linear_acceleration_covariance: [0.0, 0.0, 0.0, 0.0, 0.0, 0.0, 0.0, 0.0, 0.0]
---
header: 
  seq: 89733
  stamp: 
    secs: 1512506438
    nsecs:  87006565
  frame_id: imu_link
orientation: 
  x: -0.016008650884
  y: 0.0241255816072
  z: 0.990638375282
  w: 0.133406683803
orientation_covariance: [0.0, 0.0, 0.0, 0.0, 0.0, 0.0, 0.0, 0.0, 0.0]
angular_velocity: 
  x: -0.00136694766115
  y: 1.55986926984e-05
  z: -0.00029931057361
