header: 
  seq: 520
  stamp: 
    secs: 1512506437
    nsecs:  59906959
  frame_id: odom
child_frame_id: base_link
pose: 
  pose: 
    position: 
      x: 575709.960161
      y: 4148310.77379
      z: 3.43255745154
    orientation: 
      x: -0.020014426747
      y: -0.0256876123134
      z: -0.99347626782
      w: -0.109290779911
  covariance: [0.0, 0.0, 0.0, 0.0, 0.0, 0.0, 0.0, 0.0, 0.0, 0.0, 0.0, 0.0, 0.0, 0.0, 0.0, 0.0, 0.0, 0.0, 0.0, 0.0, 0.0, 1.0071793423759863, 0.0, 0.0, 0.0, 0.0, 0.0, 0.0, 1.0071922198876484, 0.0, 0.0, 0.0, 0.0, 0.0, 0.0, 1.0370480595411407]
twist: 
  twist: 
    linear: 
      x: 0.00148266709798
      y: -0.00216755523204
      z: -0.0030648057664
    angular: 
      x: 0.0
      y: 0.0
      z: 0.0
  covariance: [1.0007416200587316, 0.0, 0.0, 0.0, 0.0, 0.0, 0.0, 1.000650680513631, 0.0, 0.0, 0.0, 0.0, 0.0, 0.0, 1.0006895728438427, 0.0, 0.0, 0.0, 0.0, 0.0, 0.0, 0.1, 0.0, 0.0, 0.0, 0.0, 0.0, 0.0, 0.1, 0.0, 0.0, 0.0, 0.0, 0.0, 0.0, 0.1]
---
header: 
  seq: 521
  stamp: 
    secs: 1512506437
    nsecs:  62675952
  frame_id: odom
child_frame_id: base_link
pose: 
  pose: 
    position: 
      x: 575709.960161
      y: 4148310.77379
      z: 3.43255745154
    orientation: 
      x: -0.020014426747
      y: -0.0256876123134
      z: -0.99347626782
      w: -0.109290779911
  covariance: [0.0, 0.0, 0.0, 0.0, 0.0, 0.0, 0.0, 0.0, 0.0, 0.0, 0.0, 0.0, 0.0, 0.0, 0.0, 0.0, 0.0, 0.0, 0.0, 0.0, 0.0, 1.0071793423759863, 0.0, 0.0, 0.0, 0.0, 0.0, 0.0, 1.0071922198876484, 0.0, 0.0, 0.0, 0.0, 0.0, 0.0, 1.0370480595411407]
twist: 
  twist: 
    linear: 
      x: 0.00148266709798
      y: -0.00216755523204
      z: -0.0030648057664
    angular: 
      x: 0.0
      y: 0.0
      z: 0.0
  covariance: [1.0007416200587316, 0.0, 0.0, 0.0, 0.0, 0.0, 0.0, 1.000650680513631, 0.0, 0.0, 0.0, 0.0, 0.0, 0.0, 1.0006895728438427, 0.0, 0.0, 0.0, 0.0, 0.0, 0.0, 0.1, 0.0, 0.0, 0.0, 0.0, 0.0, 0.0, 0.1, 0.0, 0.0, 0.0, 0.0, 0.0, 0.0, 0.1]
---
header: 
  seq: 522
  stamp: 
    secs: 1512506437
    nsecs:  66272020
  frame_id: odom
child_frame_id: base_link
pose: 
  pose: 
    position: 
      x: 575709.960164
      y: 4148310.77379
      z: 3.43255400006
    orientation: 
      x: -0.0199925956654
      y: -0.025707256693
      z: -0.993475576073
      w: -0.109296444677
  covariance: [0.0, 0.0, 0.0, 0.0, 0.0, 0.0, 0.0, 0.0, 0.0, 0.0, 0.0, 0.0, 0.0, 0.0, 0.0, 0.0, 0.0, 0.0, 0.0, 0.0, 0.0, 1.0071793423759863, 0.0, 0.0, 0.0, 0.0, 0.0, 0.0, 1.0071922198876484, 0.0, 0.0, 0.0, 0.0, 0.0, 0.0, 1.0370480595411407]
twist: 
  twist: 
    linear: 
      x: 0.00192998881179
      y: -0.00191304116066
      z: -0.00358597239771
    angular: 
      x: 0.0
      y: 0.0
      z: 0.0
  covariance: [1.0007416200587316, 0.0, 0.0, 0.0, 0.0, 0.0, 0.0, 1.000650680513631, 0.0, 0.0, 0.0, 0.0, 0.0, 0.0, 1.0006895728438427, 0.0, 0.0, 0.0, 0.0, 0.0, 0.0, 0.1, 0.0, 0.0, 0.0, 0.0, 0.0, 0.0, 0.1, 0.0, 0.0, 0.0, 0.0, 0.0, 0.0, 0.1]
---
header: 
  seq: 523
  stamp: 
    secs: 1512506437
    nsecs:  69649934
  frame_id: odom
child_frame_id: base_link
pose: 
  pose: 
    position: 
      x: 575709.960166
      y: 4148310.77379
      z: 3.43255054206
    orientation: 
      x: -0.020013474096
      y: -0.0257198687153
      z: -0.993476015172
      w: -0.109285664597
  covariance: [0.0, 0.0, 0.0, 0.0, 0.0, 0.0, 0.0, 0.0, 0.0, 0.0, 0.0, 0.0, 0.0, 0.0, 0.0, 0.0, 0.0, 0.0, 0.0, 0.0, 0.0, 1.0071786954488895, 0.0, 0.0, 0.0, 0.0, 0.0, 0.0, 1.0071915892069325, 0.0, 0.0, 0.0, 0.0, 0.0, 0.0, 1.0371150023215046]
twist: 
  twist: 
    linear: 
      x: 0.00108296882979
      y: -0.00054104375073
      z: -0.00274886684899
    angular: 
      x: 0.0
      y: 0.0
      z: 0.0
  covariance: [1.0007416614849165, 0.0, 0.0, 0.0, 0.0, 0.0, 0.0, 1.000650716606851, 0.0, 0.0, 0.0, 0.0, 0.0, 0.0, 1.000689593192489, 0.0, 0.0, 0.0, 0.0, 0.0, 0.0, 0.1, 0.0, 0.0, 0.0, 0.0, 0.0, 0.0, 0.1, 0.0, 0.0, 0.0, 0.0, 0.0, 0.0, 0.1]
---
header: 
  seq: 524
  stamp: 
    secs: 1512506437
    nsecs:  79920053
  frame_id: odom
child_frame_id: base_link
pose: 
  pose: 
    position: 
      x: 575709.960169
      y: 4148310.77378
      z: 3.43254707661
    orientation: 
      x: -0.0200223944153
      y: -0.0257046388627
      z: -0.993476365025
      w: -0.109284433473
  covariance: [0.0, 0.0, 0.0, 0.0, 0.0, 0.0, 0.0, 0.0, 0.0, 0.0, 0.0, 0.0, 0.0, 0.0, 0.0, 0.0, 0.0, 0.0, 0.0, 0.0, 0.0, 1.0071786954488895, 0.0, 0.0, 0.0, 0.0, 0.0, 0.0, 1.0071915892069325, 0.0, 0.0, 0.0, 0.0, 0.0, 0.0, 1.0371150023215046]
twist: 
  twist: 
    linear: 
      x: 0.000469196877544
      y: -0.000936377073742
      z: -0.00256861053918
    angular: 
      x: 0.0
      y: 0.0
      z: 0.0
  covariance: [1.0007416614849165, 0.0, 0.0, 0.0, 0.0, 0.0, 0.0, 1.000650716606851, 0.0, 0.0, 0.0, 0.0, 0.0, 0.0, 1.000689593192489, 0.0, 0.0, 0.0, 0.0, 0.0, 0.0, 0.1, 0.0, 0.0, 0.0, 0.0, 0.0, 0.0, 0.1, 0.0, 0.0, 0.0, 0.0, 0.0, 0.0, 0.1]
---
header: 
  seq: 525
  stamp: 
    secs: 1512506437
    nsecs:  84724903
  frame_id: odom
child_frame_id: base_link
pose: 
  pose: 
    position: 
      x: 575709.960171
      y: 4148310.77378
      z: 3.43254360277
    orientation: 
      x: -0.0200344997431
      y: -0.0257155165888
      z: -0.993475988317
      w: -0.109283080413
  covariance: [0.0, 0.0, 0.0, 0.0, 0.0, 0.0, 0.0, 0.0, 0.0, 0.0, 0.0, 0.0, 0.0, 0.0, 0.0, 0.0, 0.0, 0.0, 0.0, 0.0, 0.0, 1.0071786954488895, 0.0, 0.0, 0.0, 0.0, 0.0, 0.0, 1.0071915892069325, 0.0, 0.0, 0.0, 0.0, 0.0, 0.0, 1.0371150023215046]
twist: 
  twist: 
    linear: 
      x: 0.00068517798623
      y: -0.000795418974364
      z: -0.0023099318419
    angular: 
      x: 0.0
      y: 0.0
      z: 0.0
  covariance: [1.0007416614849165, 0.0, 0.0, 0.0, 0.0, 0.0, 0.0, 1.000650716606851, 0.0, 0.0, 0.0, 0.0, 0.0, 0.0, 1.000689593192489, 0.0, 0.0, 0.0, 0.0, 0.0, 0.0, 0.1, 0.0, 0.0, 0.0, 0.0, 0.0, 0.0, 0.1, 0.0, 0.0, 0.0, 0.0, 0.0, 0.0, 0.1]
---
header: 
  seq: 526
  stamp: 
    secs: 1512506437
    nsecs: 109225034
  frame_id: odom
child_frame_id: base_link
pose: 
  pose: 
    position: 
      x: 575709.960176
      y: 4148310.77378
      z: 3.43253664579
    orientation: 
      x: -0.0200350400059
      y: -0.0257183162769
      z: -0.993474562222
      w: -0.109295286259
  covariance: [0.0, 0.0, 0.0, 0.0, 0.0, 0.0, 0.0, 0.0, 0.0, 0.0, 0.0, 0.0, 0.0, 0.0, 0.0, 0.0, 0.0, 0.0, 0.0, 0.0, 0.0, 1.0071786954488895, 0.0, 0.0, 0.0, 0.0, 0.0, 0.0, 1.0071915892069325, 0.0, 0.0, 0.0, 0.0, 0.0, 0.0, 1.0371150023215046]
twist: 
  twist: 
    linear: 
      x: 0.000671682914886
      y: -0.000238590455177
      z: -0.00212675784131
    angular: 
      x: 0.0
      y: 0.0
      z: 0.0
  covariance: [1.0007416614849165, 0.0, 0.0, 0.0, 0.0, 0.0, 0.0, 1.000650716606851, 0.0, 0.0, 0.0, 0.0, 0.0, 0.0, 1.000689593192489, 0.0, 0.0, 0.0, 0.0, 0.0, 0.0, 0.1, 0.0, 0.0, 0.0, 0.0, 0.0, 0.0, 0.1, 0.0, 0.0, 0.0, 0.0, 0.0, 0.0, 0.1]
---
header: 
  seq: 527
  stamp: 
    secs: 1512506437
    nsecs: 123717069
  frame_id: odom
child_frame_id: base_link
pose: 
  pose: 
    position: 
      x: 575709.960178
      y: 4148310.77378
      z: 3.43253316265
    orientation: 
      x: -0.0200281497755
      y: -0.0257071353097
      z: -0.993475528895
      w: -0.109290392524
  covariance: [0.0, 0.0, 0.0, 0.0, 0.0, 0.0, 0.0, 0.0, 0.0, 0.0, 0.0, 0.0, 0.0, 0.0, 0.0, 0.0, 0.0, 0.0, 0.0, 0.0, 0.0, 1.0071786954488895, 0.0, 0.0, 0.0, 0.0, 0.0, 0.0, 1.0071915892069325, 0.0, 0.0, 0.0, 0.0, 0.0, 0.0, 1.0371150023215046]
twist: 
  twist: 
    linear: 
      x: 0.000180998711802
      y: 0.000187786760248
      z: -0.00217618990935
    angular: 
      x: 0.0
      y: 0.0
      z: 0.0
  covariance: [1.0007416614849165, 0.0, 0.0, 0.0, 0.0, 0.0, 0.0, 1.000650716606851, 0.0, 0.0, 0.0, 0.0, 0.0, 0.0, 1.000689593192489, 0.0, 0.0, 0.0, 0.0, 0.0, 0.0, 0.1, 0.0, 0.0, 0.0, 0.0, 0.0, 0.0, 0.1, 0.0, 0.0, 0.0, 0.0, 0.0, 0.0, 0.1]
---
header: 
  seq: 528
  stamp: 
    secs: 1512506437
    nsecs: 144557952
  frame_id: odom
child_frame_id: base_link
pose: 
  pose: 
    position: 
      x: 575709.960181
      y: 4148310.77377
      z: 3.43252967112
    orientation: 
      x: -0.0200291517874
      y: -0.0257232869453
      z: -0.993475312171
      w: -0.109288378586
  covariance: [0.0, 0.0, 0.0, 0.0, 0.0, 0.0, 0.0, 0.0, 0.0, 0.0, 0.0, 0.0, 0.0, 0.0, 0.0, 0.0, 0.0, 0.0, 0.0, 0.0, 0.0, 1.0071786954488895, 0.0, 0.0, 0.0, 0.0, 0.0, 0.0, 1.0071915892069325, 0.0, 0.0, 0.0, 0.0, 0.0, 0.0, 1.0371150023215046]
twist: 
  twist: 
    linear: 
      x: 0.000168562841207
      y: 0.000207422616223
      z: -0.00250774603377
    angular: 
      x: 0.0
      y: 0.0
      z: 0.0
  covariance: [1.0007416614849165, 0.0, 0.0, 0.0, 0.0, 0.0, 0.0, 1.000650716606851, 0.0, 0.0, 0.0, 0.0, 0.0, 0.0, 1.000689593192489, 0.0, 0.0, 0.0, 0.0, 0.0, 0.0, 0.1, 0.0, 0.0, 0.0, 0.0, 0.0, 0.0, 0.1, 0.0, 0.0, 0.0, 0.0, 0.0, 0.0, 0.1]
---
header: 
  seq: 529
  stamp: 
    secs: 1512506437
    nsecs: 165275096
  frame_id: odom
child_frame_id: base_link
pose: 
  pose: 
    position: 
      x: 575709.960183
      y: 4148310.77377
      z: 3.432526174
    orientation: 
      x: -0.0200318063688
      y: -0.0257125744948
      z: -0.993476209704
      w: -0.109282253812
  covariance: [0.0, 0.0, 0.0, 0.0, 0.0, 0.0, 0.0, 0.0, 0.0, 0.0, 0.0, 0.0, 0.0, 0.0, 0.0, 0.0, 0.0, 0.0, 0.0, 0.0, 0.0, 1.0071786954488895, 0.0, 0.0, 0.0, 0.0, 0.0, 0.0, 1.0071915892069325, 0.0, 0.0, 0.0, 0.0, 0.0, 0.0, 1.0371150023215046]
twist: 
  twist: 
    linear: 
      x: 6.6682130523e-05
      y: -3.06698856609e-05
      z: -0.00176841674162
    angular: 
      x: 0.0
      y: 0.0
      z: 0.0
  covariance: [1.0007416614849165, 0.0, 0.0, 0.0, 0.0, 0.0, 0.0, 1.000650716606851, 0.0, 0.0, 0.0, 0.0, 0.0, 0.0, 1.000689593192489, 0.0, 0.0, 0.0, 0.0, 0.0, 0.0, 0.1, 0.0, 0.0, 0.0, 0.0, 0.0, 0.0, 0.1, 0.0, 0.0, 0.0, 0.0, 0.0, 0.0, 0.1]
---
header: 
  seq: 530
  stamp: 
    secs: 1512506437
    nsecs: 182595014
  frame_id: odom
child_frame_id: base_link
pose: 
  pose: 
    position: 
      x: 575709.960186
      y: 4148310.77377
      z: 3.4325226685
    orientation: 
      x: -0.0200264026908
      y: -0.0257152226578
      z: -0.993476317251
      w: -0.109281643384
  covariance: [0.0, 0.0, 0.0, 0.0, 0.0, 0.0, 0.0, 0.0, 0.0, 0.0, 0.0, 0.0, 0.0, 0.0, 0.0, 0.0, 0.0, 0.0, 0.0, 0.0, 0.0, 1.0071786954488895, 0.0, 0.0, 0.0, 0.0, 0.0, 0.0, 1.0071915892069325, 0.0, 0.0, 0.0, 0.0, 0.0, 0.0, 1.0371150023215046]
twist: 
  twist: 
    linear: 
      x: -0.00031558765112
      y: -0.000167158178019
      z: -0.00221847558196
    angular: 
      x: 0.0
      y: 0.0
      z: 0.0
  covariance: [1.0007416614849165, 0.0, 0.0, 0.0, 0.0, 0.0, 0.0, 1.000650716606851, 0.0, 0.0, 0.0, 0.0, 0.0, 0.0, 1.000689593192489, 0.0, 0.0, 0.0, 0.0, 0.0, 0.0, 0.1, 0.0, 0.0, 0.0, 0.0, 0.0, 0.0, 0.1, 0.0, 0.0, 0.0, 0.0, 0.0, 0.0, 0.1]
---
header: 
  seq: 531
  stamp: 
    secs: 1512506437
    nsecs: 217907905
  frame_id: odom
child_frame_id: base_link
pose: 
  pose: 
    position: 
      x: 575709.960191
      y: 4148310.77377
      z: 3.43251564633
    orientation: 
      x: -0.0200319175542
      y: -0.0257236958457
      z: -0.99347678888
      w: -0.109274350644
  covariance: [0.0, 0.0, 0.0, 0.0, 0.0, 0.0, 0.0, 0.0, 0.0, 0.0, 0.0, 0.0, 0.0, 0.0, 0.0, 0.0, 0.0, 0.0, 0.0, 0.0, 0.0, 1.0071786954488895, 0.0, 0.0, 0.0, 0.0, 0.0, 0.0, 1.0071915892069325, 0.0, 0.0, 0.0, 0.0, 0.0, 0.0, 1.0371150023215046]
twist: 
  twist: 
    linear: 
      x: 0.000195290861514
      y: 4.0049017237e-05
      z: -0.00230975610733
    angular: 
      x: 0.0
      y: 0.0
      z: 0.0
  covariance: [1.0007416614849165, 0.0, 0.0, 0.0, 0.0, 0.0, 0.0, 1.000650716606851, 0.0, 0.0, 0.0, 0.0, 0.0, 0.0, 1.000689593192489, 0.0, 0.0, 0.0, 0.0, 0.0, 0.0, 0.1, 0.0, 0.0, 0.0, 0.0, 0.0, 0.0, 0.1, 0.0, 0.0, 0.0, 0.0, 0.0, 0.0, 0.1]
---
header: 
  seq: 532
  stamp: 
    secs: 1512506437
    nsecs: 223438978
  frame_id: odom
child_frame_id: base_link
pose: 
  pose: 
    position: 
      x: 575709.960193
      y: 4148310.77376
      z: 3.43251212779
    orientation: 
      x: -0.0200329921543
      y: -0.0257225117771
      z: -0.993475832563
      w: -0.109283126446
  covariance: [0.0, 0.0, 0.0, 0.0, 0.0, 0.0, 0.0, 0.0, 0.0, 0.0, 0.0, 0.0, 0.0, 0.0, 0.0, 0.0, 0.0, 0.0, 0.0, 0.0, 0.0, 1.0071786954488895, 0.0, 0.0, 0.0, 0.0, 0.0, 0.0, 1.0071915892069325, 0.0, 0.0, 0.0, 0.0, 0.0, 0.0, 1.0371150023215046]
twist: 
  twist: 
    linear: 
      x: 4.37240407667e-05
      y: -0.000441661781658
      z: -0.00248737071051
    angular: 
      x: 0.0
      y: 0.0
      z: 0.0
  covariance: [1.0007416614849165, 0.0, 0.0, 0.0, 0.0, 0.0, 0.0, 1.000650716606851, 0.0, 0.0, 0.0, 0.0, 0.0, 0.0, 1.000689593192489, 0.0, 0.0, 0.0, 0.0, 0.0, 0.0, 0.1, 0.0, 0.0, 0.0, 0.0, 0.0, 0.0, 0.1, 0.0, 0.0, 0.0, 0.0, 0.0, 0.0, 0.1]
---
header: 
  seq: 533
  stamp: 
    secs: 1512506437
    nsecs: 243602991
  frame_id: odom
child_frame_id: base_link
pose: 
  pose: 
    position: 
      x: 575709.960195
      y: 4148310.77376
      z: 3.43250860274
    orientation: 
      x: -0.0200350555209
      y: -0.0257113594842
      z: -0.993476862148
      w: -0.109276012554
  covariance: [0.0, 0.0, 0.0, 0.0, 0.0, 0.0, 0.0, 0.0, 0.0, 0.0, 0.0, 0.0, 0.0, 0.0, 0.0, 0.0, 0.0, 0.0, 0.0, 0.0, 0.0, 1.0071786954488895, 0.0, 0.0, 0.0, 0.0, 0.0, 0.0, 1.0071915892069325, 0.0, 0.0, 0.0, 0.0, 0.0, 0.0, 1.0371150023215046]
twist: 
  twist: 
    linear: 
      x: 0.000419430709558
      y: -0.000563823468802
      z: -0.00246622059097
    angular: 
      x: 0.0
      y: 0.0
      z: 0.0
  covariance: [1.0007416614849165, 0.0, 0.0, 0.0, 0.0, 0.0, 0.0, 1.000650716606851, 0.0, 0.0, 0.0, 0.0, 0.0, 0.0, 1.000689593192489, 0.0, 0.0, 0.0, 0.0, 0.0, 0.0, 0.1, 0.0, 0.0, 0.0, 0.0, 0.0, 0.0, 0.1, 0.0, 0.0, 0.0, 0.0, 0.0, 0.0, 0.1]
---
header: 
  seq: 534
  stamp: 
    secs: 1512506437
    nsecs: 264884948
  frame_id: odom
child_frame_id: base_link
pose: 
  pose: 
    position: 
      x: 575709.960198
      y: 4148310.77376
      z: 3.43250507023
    orientation: 
      x: -0.0200405198703
      y: -0.0257183687674
      z: -0.993476309432
      w: -0.109278386096
  covariance: [0.0, 0.0, 0.0, 0.0, 0.0, 0.0, 0.0, 0.0, 0.0, 0.0, 0.0, 0.0, 0.0, 0.0, 0.0, 0.0, 0.0, 0.0, 0.0, 0.0, 0.0, 1.0071786954488895, 0.0, 0.0, 0.0, 0.0, 0.0, 0.0, 1.0071915892069325, 0.0, 0.0, 0.0, 0.0, 0.0, 0.0, 1.0371150023215046]
twist: 
  twist: 
    linear: 
      x: 0.000309406862985
      y: -0.000629020032609
      z: -0.00221322434991
    angular: 
      x: 0.0
      y: 0.0
      z: 0.0
  covariance: [1.0007416614849165, 0.0, 0.0, 0.0, 0.0, 0.0, 0.0, 1.000650716606851, 0.0, 0.0, 0.0, 0.0, 0.0, 0.0, 1.000689593192489, 0.0, 0.0, 0.0, 0.0, 0.0, 0.0, 0.1, 0.0, 0.0, 0.0, 0.0, 0.0, 0.0, 0.1, 0.0, 0.0, 0.0, 0.0, 0.0, 0.0, 0.1]
---
header: 
  seq: 535
  stamp: 
    secs: 1512506437
    nsecs: 285347938
  frame_id: odom
child_frame_id: base_link
pose: 
  pose: 
    position: 
      x: 575709.9602
      y: 4148310.77376
      z: 3.43250153027
    orientation: 
      x: -0.0200386240698
      y: -0.0257177702402
      z: -0.993476397197
      w: -0.109278076721
  covariance: [0.0, 0.0, 0.0, 0.0, 0.0, 0.0, 0.0, 0.0, 0.0, 0.0, 0.0, 0.0, 0.0, 0.0, 0.0, 0.0, 0.0, 0.0, 0.0, 0.0, 0.0, 1.0071786954488895, 0.0, 0.0, 0.0, 0.0, 0.0, 0.0, 1.0071915892069325, 0.0, 0.0, 0.0, 0.0, 0.0, 0.0, 1.0371150023215046]
twist: 
  twist: 
    linear: 
      x: 0.000640100202979
      y: -0.000612070588369
      z: -0.00200736395851
    angular: 
      x: 0.0
      y: 0.0
      z: 0.0
  covariance: [1.0007416614849165, 0.0, 0.0, 0.0, 0.0, 0.0, 0.0, 1.000650716606851, 0.0, 0.0, 0.0, 0.0, 0.0, 0.0, 1.000689593192489, 0.0, 0.0, 0.0, 0.0, 0.0, 0.0, 0.1, 0.0, 0.0, 0.0, 0.0, 0.0, 0.0, 0.1, 0.0, 0.0, 0.0, 0.0, 0.0, 0.0, 0.1]
---
header: 
  seq: 536
  stamp: 
    secs: 1512506437
    nsecs: 309501886
  frame_id: odom
child_frame_id: base_link
pose: 
  pose: 
    position: 
      x: 575709.960205
      y: 4148310.77375
      z: 3.43249444105
    orientation: 
      x: -0.0200397247751
      y: -0.025711870591
      z: -0.993476625013
      w: -0.109277192018
  covariance: [0.0, 0.0, 0.0, 0.0, 0.0, 0.0, 0.0, 0.0, 0.0, 0.0, 0.0, 0.0, 0.0, 0.0, 0.0, 0.0, 0.0, 0.0, 0.0, 0.0, 0.0, 1.0071786954488895, 0.0, 0.0, 0.0, 0.0, 0.0, 0.0, 1.0071915892069325, 0.0, 0.0, 0.0, 0.0, 0.0, 0.0, 1.0371150023215046]
twist: 
  twist: 
    linear: 
      x: 0.000124313182009
      y: -0.00127895245143
      z: -0.00215164308531
    angular: 
      x: 0.0
      y: 0.0
      z: 0.0
  covariance: [1.0007416614849165, 0.0, 0.0, 0.0, 0.0, 0.0, 0.0, 1.000650716606851, 0.0, 0.0, 0.0, 0.0, 0.0, 0.0, 1.000689593192489, 0.0, 0.0, 0.0, 0.0, 0.0, 0.0, 0.1, 0.0, 0.0, 0.0, 0.0, 0.0, 0.0, 0.1, 0.0, 0.0, 0.0, 0.0, 0.0, 0.0, 0.1]
---
header: 
  seq: 537
  stamp: 
    secs: 1512506437
    nsecs: 324886083
  frame_id: odom
child_frame_id: base_link
pose: 
  pose: 
    position: 
      x: 575709.960208
      y: 4148310.77375
      z: 3.43249088898
    orientation: 
      x: -0.0200322297704
      y: -0.025713726764
      z: -0.993476807686
      w: -0.109276468723
  covariance: [0.0, 0.0, 0.0, 0.0, 0.0, 0.0, 0.0, 0.0, 0.0, 0.0, 0.0, 0.0, 0.0, 0.0, 0.0, 0.0, 0.0, 0.0, 0.0, 0.0, 0.0, 1.0071786954488895, 0.0, 0.0, 0.0, 0.0, 0.0, 0.0, 1.0071915892069325, 0.0, 0.0, 0.0, 0.0, 0.0, 0.0, 1.0371150023215046]
twist: 
  twist: 
    linear: 
      x: 0.000446623851183
      y: -0.000955547149228
      z: -0.00235942854393
    angular: 
      x: 0.0
      y: 0.0
      z: 0.0
  covariance: [1.0007416614849165, 0.0, 0.0, 0.0, 0.0, 0.0, 0.0, 1.000650716606851, 0.0, 0.0, 0.0, 0.0, 0.0, 0.0, 1.000689593192489, 0.0, 0.0, 0.0, 0.0, 0.0, 0.0, 0.1, 0.0, 0.0, 0.0, 0.0, 0.0, 0.0, 0.1, 0.0, 0.0, 0.0, 0.0, 0.0, 0.0, 0.1]
---
header: 
  seq: 538
  stamp: 
    secs: 1512506437
    nsecs: 344763994
  frame_id: odom
child_frame_id: base_link
pose: 
  pose: 
    position: 
      x: 575709.96021
      y: 4148310.77375
      z: 3.43248733412
    orientation: 
      x: -0.0200294610456
      y: -0.0257120569299
      z: -0.993475968407
      w: -0.109284999042
  covariance: [0.0, 0.0, 0.0, 0.0, 0.0, 0.0, 0.0, 0.0, 0.0, 0.0, 0.0, 0.0, 0.0, 0.0, 0.0, 0.0, 0.0, 0.0, 0.0, 0.0, 0.0, 1.0071786954488895, 0.0, 0.0, 0.0, 0.0, 0.0, 0.0, 1.0071915892069325, 0.0, 0.0, 0.0, 0.0, 0.0, 0.0, 1.0371150023215046]
twist: 
  twist: 
    linear: 
      x: 0.000557879106511
      y: -0.00110532532992
      z: -0.00157332307748
    angular: 
      x: 0.0
      y: 0.0
      z: 0.0
  covariance: [1.0007416614849165, 0.0, 0.0, 0.0, 0.0, 0.0, 0.0, 1.000650716606851, 0.0, 0.0, 0.0, 0.0, 0.0, 0.0, 1.000689593192489, 0.0, 0.0, 0.0, 0.0, 0.0, 0.0, 0.1, 0.0, 0.0, 0.0, 0.0, 0.0, 0.0, 0.1, 0.0, 0.0, 0.0, 0.0, 0.0, 0.0, 0.1]
---
header: 
  seq: 539
  stamp: 
    secs: 1512506437
    nsecs: 364876985
  frame_id: odom
child_frame_id: base_link
pose: 
  pose: 
    position: 
      x: 575709.960212
      y: 4148310.77375
      z: 3.43248377182
    orientation: 
      x: -0.020035362519
      y: -0.0257227130634
      z: -0.99347614156
      w: -0.109279835434
  covariance: [0.0, 0.0, 0.0, 0.0, 0.0, 0.0, 0.0, 0.0, 0.0, 0.0, 0.0, 0.0, 0.0, 0.0, 0.0, 0.0, 0.0, 0.0, 0.0, 0.0, 0.0, 1.0071786954488895, 0.0, 0.0, 0.0, 0.0, 0.0, 0.0, 1.0071915892069325, 0.0, 0.0, 0.0, 0.0, 0.0, 0.0, 1.0371150023215046]
twist: 
  twist: 
    linear: 
      x: 0.000330539696314
      y: -0.000932994556524
      z: -0.0016875007403
    angular: 
      x: 0.0
      y: 0.0
      z: 0.0
  covariance: [1.0007416614849165, 0.0, 0.0, 0.0, 0.0, 0.0, 0.0, 1.000650716606851, 0.0, 0.0, 0.0, 0.0, 0.0, 0.0, 1.000689593192489, 0.0, 0.0, 0.0, 0.0, 0.0, 0.0, 0.1, 0.0, 0.0, 0.0, 0.0, 0.0, 0.0, 0.1, 0.0, 0.0, 0.0, 0.0, 0.0, 0.0, 0.1]
---
header: 
  seq: 540
  stamp: 
    secs: 1512506437
    nsecs: 383217096
  frame_id: odom
child_frame_id: base_link
pose: 
  pose: 
    position: 
      x: 575709.960215
      y: 4148310.77374
      z: 3.43248020485
    orientation: 
      x: -0.0200329817888
      y: -0.025706800411
      z: -0.99347651885
      w: -0.109280586324
  covariance: [0.0, 0.0, 0.0, 0.0, 0.0, 0.0, 0.0, 0.0, 0.0, 0.0, 0.0, 0.0, 0.0, 0.0, 0.0, 0.0, 0.0, 0.0, 0.0, 0.0, 0.0, 1.0071786954488895, 0.0, 0.0, 0.0, 0.0, 0.0, 0.0, 1.0071915892069325, 0.0, 0.0, 0.0, 0.0, 0.0, 0.0, 1.0371150023215046]
twist: 
  twist: 
    linear: 
      x: 0.000252455396392
      y: -0.000587270744782
      z: -0.00186552453405
    angular: 
      x: 0.0
      y: 0.0
      z: 0.0
  covariance: [1.0007416614849165, 0.0, 0.0, 0.0, 0.0, 0.0, 0.0, 1.000650716606851, 0.0, 0.0, 0.0, 0.0, 0.0, 0.0, 1.000689593192489, 0.0, 0.0, 0.0, 0.0, 0.0, 0.0, 0.1, 0.0, 0.0, 0.0, 0.0, 0.0, 0.0, 0.1, 0.0, 0.0, 0.0, 0.0, 0.0, 0.0, 0.1]
---
header: 
  seq: 541
  stamp: 
    secs: 1512506437
    nsecs: 416961908
  frame_id: odom
child_frame_id: base_link
pose: 
  pose: 
    position: 
      x: 575709.96022
      y: 4148310.77374
      z: 3.43247306254
    orientation: 
      x: -0.0200312725669
      y: -0.0257106637029
      z: -0.993475711997
      w: -0.109287325722
  covariance: [0.0, 0.0, 0.0, 0.0, 0.0, 0.0, 0.0, 0.0, 0.0, 0.0, 0.0, 0.0, 0.0, 0.0, 0.0, 0.0, 0.0, 0.0, 0.0, 0.0, 0.0, 1.0071786954488895, 0.0, 0.0, 0.0, 0.0, 0.0, 0.0, 1.0071915892069325, 0.0, 0.0, 0.0, 0.0, 0.0, 0.0, 1.0371150023215046]
twist: 
  twist: 
    linear: 
      x: 0.000720303247375
      y: -0.000597064482004
      z: -0.00204888373878
    angular: 
      x: 0.0
      y: 0.0
      z: 0.0
  covariance: [1.0007416614849165, 0.0, 0.0, 0.0, 0.0, 0.0, 0.0, 1.000650716606851, 0.0, 0.0, 0.0, 0.0, 0.0, 0.0, 1.000689593192489, 0.0, 0.0, 0.0, 0.0, 0.0, 0.0, 0.1, 0.0, 0.0, 0.0, 0.0, 0.0, 0.0, 0.1, 0.0, 0.0, 0.0, 0.0, 0.0, 0.0, 0.1]
---
header: 
  seq: 542
  stamp: 
    secs: 1512506437
    nsecs: 422880887
  frame_id: odom
child_frame_id: base_link
pose: 
  pose: 
    position: 
      x: 575709.960222
      y: 4148310.77374
      z: 3.43246948719
    orientation: 
      x: -0.0200373098555
      y: -0.0257101572181
      z: -0.993476309605
      w: -0.109280905396
  covariance: [0.0, 0.0, 0.0, 0.0, 0.0, 0.0, 0.0, 0.0, 0.0, 0.0, 0.0, 0.0, 0.0, 0.0, 0.0, 0.0, 0.0, 0.0, 0.0, 0.0, 0.0, 1.0071786954488895, 0.0, 0.0, 0.0, 0.0, 0.0, 0.0, 1.0071915892069325, 0.0, 0.0, 0.0, 0.0, 0.0, 0.0, 1.0371150023215046]
twist: 
  twist: 
    linear: 
      x: 0.000244292908602
      y: -0.000147639485139
      z: -0.00203397092734
    angular: 
      x: 0.0
      y: 0.0
      z: 0.0
  covariance: [1.0007416614849165, 0.0, 0.0, 0.0, 0.0, 0.0, 0.0, 1.000650716606851, 0.0, 0.0, 0.0, 0.0, 0.0, 0.0, 1.000689593192489, 0.0, 0.0, 0.0, 0.0, 0.0, 0.0, 0.1, 0.0, 0.0, 0.0, 0.0, 0.0, 0.0, 0.1, 0.0, 0.0, 0.0, 0.0, 0.0, 0.0, 0.1]
---
header: 
  seq: 543
  stamp: 
    secs: 1512506437
    nsecs: 444716930
  frame_id: odom
child_frame_id: base_link
pose: 
  pose: 
    position: 
      x: 575709.960225
      y: 4148310.77374
      z: 3.4324659016
    orientation: 
      x: -0.0200438370402
      y: -0.0257078302845
      z: -0.993476520369
      w: -0.109278339734
  covariance: [0.0, 0.0, 0.0, 0.0, 0.0, 0.0, 0.0, 0.0, 0.0, 0.0, 0.0, 0.0, 0.0, 0.0, 0.0, 0.0, 0.0, 0.0, 0.0, 0.0, 0.0, 1.0071786954488895, 0.0, 0.0, 0.0, 0.0, 0.0, 0.0, 1.0071915892069325, 0.0, 0.0, 0.0, 0.0, 0.0, 0.0, 1.0371150023215046]
twist: 
  twist: 
    linear: 
      x: -8.93578535376e-05
      y: -3.05712599301e-05
      z: -0.00224129931105
    angular: 
      x: 0.0
      y: 0.0
      z: 0.0
  covariance: [1.0007416614849165, 0.0, 0.0, 0.0, 0.0, 0.0, 0.0, 1.000650716606851, 0.0, 0.0, 0.0, 0.0, 0.0, 0.0, 1.000689593192489, 0.0, 0.0, 0.0, 0.0, 0.0, 0.0, 0.1, 0.0, 0.0, 0.0, 0.0, 0.0, 0.0, 0.1, 0.0, 0.0, 0.0, 0.0, 0.0, 0.0, 0.1]
---
header: 
  seq: 544
  stamp: 
    secs: 1512506437
    nsecs: 464991092
  frame_id: odom
child_frame_id: base_link
pose: 
  pose: 
    position: 
      x: 575709.960227
      y: 4148310.77373
      z: 3.43246231042
    orientation: 
      x: -0.0200343393943
      y: -0.0256984906339
      z: -0.993477198102
      w: -0.109276116675
  covariance: [0.0, 0.0, 0.0, 0.0, 0.0, 0.0, 0.0, 0.0, 0.0, 0.0, 0.0, 0.0, 0.0, 0.0, 0.0, 0.0, 0.0, 0.0, 0.0, 0.0, 0.0, 1.0071786954488895, 0.0, 0.0, 0.0, 0.0, 0.0, 0.0, 1.0071915892069325, 0.0, 0.0, 0.0, 0.0, 0.0, 0.0, 1.0371150023215046]
twist: 
  twist: 
    linear: 
      x: 0.000145314536622
      y: 0.000248464624189
      z: -0.00216570320021
    angular: 
      x: 0.0
      y: 0.0
      z: 0.0
  covariance: [1.0007416614849165, 0.0, 0.0, 0.0, 0.0, 0.0, 0.0, 1.000650716606851, 0.0, 0.0, 0.0, 0.0, 0.0, 0.0, 1.000689593192489, 0.0, 0.0, 0.0, 0.0, 0.0, 0.0, 0.1, 0.0, 0.0, 0.0, 0.0, 0.0, 0.0, 0.1, 0.0, 0.0, 0.0, 0.0, 0.0, 0.0, 0.1]
---
header: 
  seq: 545
  stamp: 
    secs: 1512506437
    nsecs: 484121084
  frame_id: odom
child_frame_id: base_link
pose: 
  pose: 
    position: 
      x: 575709.96023
      y: 4148310.77373
      z: 3.43245871086
    orientation: 
      x: -0.0200313966753
      y: -0.0257008614455
      z: -0.993477503786
      w: -0.10927331943
  covariance: [0.0, 0.0, 0.0, 0.0, 0.0, 0.0, 0.0, 0.0, 0.0, 0.0, 0.0, 0.0, 0.0, 0.0, 0.0, 0.0, 0.0, 0.0, 0.0, 0.0, 0.0, 1.0071786954488895, 0.0, 0.0, 0.0, 0.0, 0.0, 0.0, 1.0071915892069325, 0.0, 0.0, 0.0, 0.0, 0.0, 0.0, 1.0371150023215046]
twist: 
  twist: 
    linear: 
      x: 0.000319258530418
      y: -4.69973431222e-05
      z: -0.00276169034461
    angular: 
      x: 0.0
      y: 0.0
      z: 0.0
  covariance: [1.0007416614849165, 0.0, 0.0, 0.0, 0.0, 0.0, 0.0, 1.000650716606851, 0.0, 0.0, 0.0, 0.0, 0.0, 0.0, 1.000689593192489, 0.0, 0.0, 0.0, 0.0, 0.0, 0.0, 0.1, 0.0, 0.0, 0.0, 0.0, 0.0, 0.0, 0.1, 0.0, 0.0, 0.0, 0.0, 0.0, 0.0, 0.1]
---
header: 
  seq: 546
  stamp: 
    secs: 1512506437
    nsecs: 517476081
  frame_id: odom
child_frame_id: base_link
pose: 
  pose: 
    position: 
      x: 575709.960234
      y: 4148310.77373
      z: 3.43245149776
    orientation: 
      x: -0.0200394802212
      y: -0.0257053432146
      z: -0.993476678872
      w: -0.109278282841
  covariance: [0.0, 0.0, 0.0, 0.0, 0.0, 0.0, 0.0, 0.0, 0.0, 0.0, 0.0, 0.0, 0.0, 0.0, 0.0, 0.0, 0.0, 0.0, 0.0, 0.0, 0.0, 1.0071786954488895, 0.0, 0.0, 0.0, 0.0, 0.0, 0.0, 1.0071915892069325, 0.0, 0.0, 0.0, 0.0, 0.0, 0.0, 1.0371150023215046]
twist: 
  twist: 
    linear: 
      x: -0.000226585153379
      y: 7.55669209353e-05
      z: -0.00289327908157
    angular: 
      x: 0.0
      y: 0.0
      z: 0.0
  covariance: [1.0007416614849165, 0.0, 0.0, 0.0, 0.0, 0.0, 0.0, 1.000650716606851, 0.0, 0.0, 0.0, 0.0, 0.0, 0.0, 1.000689593192489, 0.0, 0.0, 0.0, 0.0, 0.0, 0.0, 0.1, 0.0, 0.0, 0.0, 0.0, 0.0, 0.0, 0.1, 0.0, 0.0, 0.0, 0.0, 0.0, 0.0, 0.1]
---
header: 
  seq: 547
  stamp: 
    secs: 1512506437
    nsecs: 524360895
  frame_id: odom
child_frame_id: base_link
pose: 
  pose: 
    position: 
      x: 575709.960237
      y: 4148310.77373
      z: 3.43244788237
    orientation: 
      x: -0.0200465903773
      y: -0.0257033589594
      z: -0.993476861273
      w: -0.109275787197
  covariance: [0.0, 0.0, 0.0, 0.0, 0.0, 0.0, 0.0, 0.0, 0.0, 0.0, 0.0, 0.0, 0.0, 0.0, 0.0, 0.0, 0.0, 0.0, 0.0, 0.0, 0.0, 1.0071786954488895, 0.0, 0.0, 0.0, 0.0, 0.0, 0.0, 1.0071915892069325, 0.0, 0.0, 0.0, 0.0, 0.0, 0.0, 1.0371150023215046]
twist: 
  twist: 
    linear: 
      x: -0.000171372061976
      y: -3.12468498733e-05
      z: -0.00299169618793
    angular: 
      x: 0.0
      y: 0.0
      z: 0.0
  covariance: [1.0007416614849165, 0.0, 0.0, 0.0, 0.0, 0.0, 0.0, 1.000650716606851, 0.0, 0.0, 0.0, 0.0, 0.0, 0.0, 1.000689593192489, 0.0, 0.0, 0.0, 0.0, 0.0, 0.0, 0.1, 0.0, 0.0, 0.0, 0.0, 0.0, 0.0, 0.1, 0.0, 0.0, 0.0, 0.0, 0.0, 0.0, 0.1]
---
header: 
  seq: 548
  stamp: 
    secs: 1512506437
    nsecs: 543240070
  frame_id: odom
child_frame_id: base_link
pose: 
  pose: 
    position: 
      x: 575709.960239
      y: 4148310.77372
      z: 3.43244425487
    orientation: 
      x: -0.0200437038602
      y: -0.0257160935778
      z: -0.993476648578
      w: -0.109275254278
  covariance: [0.0, 0.0, 0.0, 0.0, 0.0, 0.0, 0.0, 0.0, 0.0, 0.0, 0.0, 0.0, 0.0, 0.0, 0.0, 0.0, 0.0, 0.0, 0.0, 0.0, 0.0, 1.0071786954488895, 0.0, 0.0, 0.0, 0.0, 0.0, 0.0, 1.0071915892069325, 0.0, 0.0, 0.0, 0.0, 0.0, 0.0, 1.0371150023215046]
twist: 
  twist: 
    linear: 
      x: 0.000234520710953
      y: 5.75750888597e-05
      z: -0.00299468323448
    angular: 
      x: 0.0
      y: 0.0
      z: 0.0
  covariance: [1.0007416614849165, 0.0, 0.0, 0.0, 0.0, 0.0, 0.0, 1.000650716606851, 0.0, 0.0, 0.0, 0.0, 0.0, 0.0, 1.000689593192489, 0.0, 0.0, 0.0, 0.0, 0.0, 0.0, 0.1, 0.0, 0.0, 0.0, 0.0, 0.0, 0.0, 0.1, 0.0, 0.0, 0.0, 0.0, 0.0, 0.0, 0.1]
---
header: 
  seq: 549
  stamp: 
    secs: 1512506437
    nsecs: 566168069
  frame_id: odom
child_frame_id: base_link
pose: 
  pose: 
    position: 
      x: 575709.960242
      y: 4148310.77372
      z: 3.43244062271
    orientation: 
      x: -0.0200441656837
      y: -0.0257197341321
      z: -0.993476018061
      w: -0.109280045003
  covariance: [0.0, 0.0, 0.0, 0.0, 0.0, 0.0, 0.0, 0.0, 0.0, 0.0, 0.0, 0.0, 0.0, 0.0, 0.0, 0.0, 0.0, 0.0, 0.0, 0.0, 0.0, 1.0071786954488895, 0.0, 0.0, 0.0, 0.0, 0.0, 0.0, 1.0071915892069325, 0.0, 0.0, 0.0, 0.0, 0.0, 0.0, 1.0371150023215046]
twist: 
  twist: 
    linear: 
      x: 0.000471238101898
      y: -7.24828134954e-05
      z: -0.00302350595331
    angular: 
      x: 0.0
      y: 0.0
      z: 0.0
  covariance: [1.0007416614849165, 0.0, 0.0, 0.0, 0.0, 0.0, 0.0, 1.000650716606851, 0.0, 0.0, 0.0, 0.0, 0.0, 0.0, 1.000689593192489, 0.0, 0.0, 0.0, 0.0, 0.0, 0.0, 0.1, 0.0, 0.0, 0.0, 0.0, 0.0, 0.0, 0.1, 0.0, 0.0, 0.0, 0.0, 0.0, 0.0, 0.1]
---
header: 
  seq: 550
  stamp: 
    secs: 1512506437
    nsecs: 583623886
  frame_id: odom
child_frame_id: base_link
pose: 
  pose: 
    position: 
      x: 575709.960244
      y: 4148310.77372
      z: 3.43243698124
    orientation: 
      x: -0.0200477097736
      y: -0.0257238003631
      z: -0.993477288932
      w: -0.10926688338
  covariance: [0.0, 0.0, 0.0, 0.0, 0.0, 0.0, 0.0, 0.0, 0.0, 0.0, 0.0, 0.0, 0.0, 0.0, 0.0, 0.0, 0.0, 0.0, 0.0, 0.0, 0.0, 1.0071786954488895, 0.0, 0.0, 0.0, 0.0, 0.0, 0.0, 1.0071915892069325, 0.0, 0.0, 0.0, 0.0, 0.0, 0.0, 1.0371150023215046]
twist: 
  twist: 
    linear: 
      x: 0.00011787319498
      y: 3.88343352436e-05
      z: -0.00316742548626
    angular: 
      x: 0.0
      y: 0.0
      z: 0.0
  covariance: [1.0007416614849165, 0.0, 0.0, 0.0, 0.0, 0.0, 0.0, 1.000650716606851, 0.0, 0.0, 0.0, 0.0, 0.0, 0.0, 1.000689593192489, 0.0, 0.0, 0.0, 0.0, 0.0, 0.0, 0.1, 0.0, 0.0, 0.0, 0.0, 0.0, 0.0, 0.1, 0.0, 0.0, 0.0, 0.0, 0.0, 0.0, 0.1]
---
header: 
  seq: 551
  stamp: 
    secs: 1512506437
    nsecs: 616832971
  frame_id: odom
child_frame_id: base_link
pose: 
  pose: 
    position: 
      x: 575709.960249
      y: 4148310.77372
      z: 3.43242967222
    orientation: 
      x: -0.0200419288941
      y: -0.0257217564963
      z: -0.993477527149
      w: -0.109266259102
  covariance: [0.0, 0.0, 0.0, 0.0, 0.0, 0.0, 0.0, 0.0, 0.0, 0.0, 0.0, 0.0, 0.0, 0.0, 0.0, 0.0, 0.0, 0.0, 0.0, 0.0, 0.0, 1.0071786954488895, 0.0, 0.0, 0.0, 0.0, 0.0, 0.0, 1.0071915892069325, 0.0, 0.0, 0.0, 0.0, 0.0, 0.0, 1.0371150023215046]
twist: 
  twist: 
    linear: 
      x: 0.000305281709162
      y: -0.00029095535546
      z: -0.00309806428932
    angular: 
      x: 0.0
      y: 0.0
      z: 0.0
  covariance: [1.0007416614849165, 0.0, 0.0, 0.0, 0.0, 0.0, 0.0, 1.000650716606851, 0.0, 0.0, 0.0, 0.0, 0.0, 0.0, 1.000689593192489, 0.0, 0.0, 0.0, 0.0, 0.0, 0.0, 0.1, 0.0, 0.0, 0.0, 0.0, 0.0, 0.0, 0.1, 0.0, 0.0, 0.0, 0.0, 0.0, 0.0, 0.1]
---
header: 
  seq: 552
  stamp: 
    secs: 1512506437
    nsecs: 622255086
  frame_id: odom
child_frame_id: base_link
pose: 
  pose: 
    position: 
      x: 575709.960251
      y: 4148310.77371
      z: 3.43242600933
    orientation: 
      x: -0.0200515961076
      y: -0.0257119018909
      z: -0.993478222945
      w: -0.109260478349
  covariance: [0.0, 0.0, 0.0, 0.0, 0.0, 0.0, 0.0, 0.0, 0.0, 0.0, 0.0, 0.0, 0.0, 0.0, 0.0, 0.0, 0.0, 0.0, 0.0, 0.0, 0.0, 1.0071786954488895, 0.0, 0.0, 0.0, 0.0, 0.0, 0.0, 1.0071915892069325, 0.0, 0.0, 0.0, 0.0, 0.0, 0.0, 1.0371150023215046]
twist: 
  twist: 
    linear: 
      x: 0.000734702442207
      y: 0.000139188145617
      z: -0.00293403567671
    angular: 
      x: 0.0
      y: 0.0
      z: 0.0
  covariance: [1.0007416614849165, 0.0, 0.0, 0.0, 0.0, 0.0, 0.0, 1.000650716606851, 0.0, 0.0, 0.0, 0.0, 0.0, 0.0, 1.000689593192489, 0.0, 0.0, 0.0, 0.0, 0.0, 0.0, 0.1, 0.0, 0.0, 0.0, 0.0, 0.0, 0.0, 0.1, 0.0, 0.0, 0.0, 0.0, 0.0, 0.0, 0.1]
---
header: 
  seq: 553
  stamp: 
    secs: 1512506437
    nsecs: 643316984
  frame_id: odom
child_frame_id: base_link
pose: 
  pose: 
    position: 
      x: 575709.960254
      y: 4148310.77371
      z: 3.43242233526
    orientation: 
      x: -0.0200457825648
      y: -0.0257168970627
      z: -0.993478042902
      w: -0.109262006564
  covariance: [0.0, 0.0, 0.0, 0.0, 0.0, 0.0, 0.0, 0.0, 0.0, 0.0, 0.0, 0.0, 0.0, 0.0, 0.0, 0.0, 0.0, 0.0, 0.0, 0.0, 0.0, 1.0071786954488895, 0.0, 0.0, 0.0, 0.0, 0.0, 0.0, 1.0071915892069325, 0.0, 0.0, 0.0, 0.0, 0.0, 0.0, 1.0371150023215046]
twist: 
  twist: 
    linear: 
      x: -5.59551570361e-05
      y: 0.000195869920707
      z: -0.00320708421697
    angular: 
      x: 0.0
      y: 0.0
      z: 0.0
  covariance: [1.0007416614849165, 0.0, 0.0, 0.0, 0.0, 0.0, 0.0, 1.000650716606851, 0.0, 0.0, 0.0, 0.0, 0.0, 0.0, 1.000689593192489, 0.0, 0.0, 0.0, 0.0, 0.0, 0.0, 0.1, 0.0, 0.0, 0.0, 0.0, 0.0, 0.0, 0.1, 0.0, 0.0, 0.0, 0.0, 0.0, 0.0, 0.1]
---
header: 
  seq: 554
  stamp: 
    secs: 1512506437
    nsecs: 665436029
  frame_id: odom
child_frame_id: base_link
pose: 
  pose: 
    position: 
      x: 575709.960256
      y: 4148310.77371
      z: 3.43241865654
    orientation: 
      x: -0.0200484949482
      y: -0.0257183856622
      z: -0.993477955722
      w: -0.109261951216
  covariance: [0.0, 0.0, 0.0, 0.0, 0.0, 0.0, 0.0, 0.0, 0.0, 0.0, 0.0, 0.0, 0.0, 0.0, 0.0, 0.0, 0.0, 0.0, 0.0, 0.0, 0.0, 1.0071786954488895, 0.0, 0.0, 0.0, 0.0, 0.0, 0.0, 1.0071915892069325, 0.0, 0.0, 0.0, 0.0, 0.0, 0.0, 1.0371150023215046]
twist: 
  twist: 
    linear: 
      x: 0.000367404417055
      y: 6.4540238544e-06
      z: -0.00232165913872
    angular: 
      x: 0.0
      y: 0.0
      z: 0.0
  covariance: [1.0007416614849165, 0.0, 0.0, 0.0, 0.0, 0.0, 0.0, 1.000650716606851, 0.0, 0.0, 0.0, 0.0, 0.0, 0.0, 1.000689593192489, 0.0, 0.0, 0.0, 0.0, 0.0, 0.0, 0.1, 0.0, 0.0, 0.0, 0.0, 0.0, 0.0, 0.1, 0.0, 0.0, 0.0, 0.0, 0.0, 0.0, 0.1]
---
header: 
  seq: 555
  stamp: 
    secs: 1512506437
    nsecs: 683552980
  frame_id: odom
child_frame_id: base_link
pose: 
  pose: 
    position: 
      x: 575709.960259
      y: 4148310.77371
      z: 3.43241496664
    orientation: 
      x: -0.0200477007581
      y: -0.0257248837675
      z: -0.99347753257
      w: -0.109264414734
  covariance: [0.0, 0.0, 0.0, 0.0, 0.0, 0.0, 0.0, 0.0, 0.0, 0.0, 0.0, 0.0, 0.0, 0.0, 0.0, 0.0, 0.0, 0.0, 0.0, 0.0, 0.0, 1.0071786954488895, 0.0, 0.0, 0.0, 0.0, 0.0, 0.0, 1.0071915892069325, 0.0, 0.0, 0.0, 0.0, 0.0, 0.0, 1.0371150023215046]
twist: 
  twist: 
    linear: 
      x: 0.000146037659869
      y: -0.000420911172994
      z: -0.00255688317873
    angular: 
      x: 0.0
      y: 0.0
      z: 0.0
  covariance: [1.0007416614849165, 0.0, 0.0, 0.0, 0.0, 0.0, 0.0, 1.000650716606851, 0.0, 0.0, 0.0, 0.0, 0.0, 0.0, 1.000689593192489, 0.0, 0.0, 0.0, 0.0, 0.0, 0.0, 0.1, 0.0, 0.0, 0.0, 0.0, 0.0, 0.0, 0.1, 0.0, 0.0, 0.0, 0.0, 0.0, 0.0, 0.1]
---
header: 
  seq: 556
  stamp: 
    secs: 1512506437
    nsecs: 708653926
  frame_id: odom
child_frame_id: base_link
pose: 
  pose: 
    position: 
      x: 575709.960263
      y: 4148310.7737
      z: 3.432407571
    orientation: 
      x: -0.0200420610323
      y: -0.0257272786774
      z: -0.993477189746
      w: -0.109268002522
  covariance: [0.0, 0.0, 0.0, 0.0, 0.0, 0.0, 0.0, 0.0, 0.0, 0.0, 0.0, 0.0, 0.0, 0.0, 0.0, 0.0, 0.0, 0.0, 0.0, 0.0, 0.0, 1.0071786954488895, 0.0, 0.0, 0.0, 0.0, 0.0, 0.0, 1.0071915892069325, 0.0, 0.0, 0.0, 0.0, 0.0, 0.0, 1.0371150023215046]
twist: 
  twist: 
    linear: 
      x: -0.000113032197611
      y: -9.87086332608e-05
      z: -0.00276812260834
    angular: 
      x: 0.0
      y: 0.0
      z: 0.0
  covariance: [1.0007416614849165, 0.0, 0.0, 0.0, 0.0, 0.0, 0.0, 1.000650716606851, 0.0, 0.0, 0.0, 0.0, 0.0, 0.0, 1.000689593192489, 0.0, 0.0, 0.0, 0.0, 0.0, 0.0, 0.1, 0.0, 0.0, 0.0, 0.0, 0.0, 0.0, 0.1, 0.0, 0.0, 0.0, 0.0, 0.0, 0.0, 0.1]
---
header: 
  seq: 557
  stamp: 
    secs: 1512506437
    nsecs: 725068092
  frame_id: odom
child_frame_id: base_link
pose: 
  pose: 
    position: 
      x: 575709.960266
      y: 4148310.7737
      z: 3.43240386527
    orientation: 
      x: -0.0200407298437
      y: -0.0257147637897
      z: -0.993476786059
      w: -0.109274862767
  covariance: [0.0, 0.0, 0.0, 0.0, 0.0, 0.0, 0.0, 0.0, 0.0, 0.0, 0.0, 0.0, 0.0, 0.0, 0.0, 0.0, 0.0, 0.0, 0.0, 0.0, 0.0, 1.0071786954488895, 0.0, 0.0, 0.0, 0.0, 0.0, 0.0, 1.0071915892069325, 0.0, 0.0, 0.0, 0.0, 0.0, 0.0, 1.0371150023215046]
twist: 
  twist: 
    linear: 
      x: -0.000317107114779
      y: -7.67345861801e-05
      z: -0.0027471255869
    angular: 
      x: 0.0
      y: 0.0
      z: 0.0
  covariance: [1.0007416614849165, 0.0, 0.0, 0.0, 0.0, 0.0, 0.0, 1.000650716606851, 0.0, 0.0, 0.0, 0.0, 0.0, 0.0, 1.000689593192489, 0.0, 0.0, 0.0, 0.0, 0.0, 0.0, 0.1, 0.0, 0.0, 0.0, 0.0, 0.0, 0.0, 0.1, 0.0, 0.0, 0.0, 0.0, 0.0, 0.0, 0.1]
---
header: 
  seq: 558
  stamp: 
    secs: 1512506437
    nsecs: 743124008
  frame_id: odom
child_frame_id: base_link
pose: 
  pose: 
    position: 
      x: 575709.960268
      y: 4148310.7737
      z: 3.43240015395
    orientation: 
      x: -0.0200363097758
      y: -0.0257269997658
      z: -0.993476752107
      w: -0.109273101891
  covariance: [0.0, 0.0, 0.0, 0.0, 0.0, 0.0, 0.0, 0.0, 0.0, 0.0, 0.0, 0.0, 0.0, 0.0, 0.0, 0.0, 0.0, 0.0, 0.0, 0.0, 0.0, 1.0071786954488895, 0.0, 0.0, 0.0, 0.0, 0.0, 0.0, 1.0071915892069325, 0.0, 0.0, 0.0, 0.0, 0.0, 0.0, 1.0371150023215046]
twist: 
  twist: 
    linear: 
      x: -4.8658238183e-09
      y: -0.000458354421907
      z: -0.00261772317541
    angular: 
      x: 0.0
      y: 0.0
      z: 0.0
  covariance: [1.0007416614849165, 0.0, 0.0, 0.0, 0.0, 0.0, 0.0, 1.000650716606851, 0.0, 0.0, 0.0, 0.0, 0.0, 0.0, 1.000689593192489, 0.0, 0.0, 0.0, 0.0, 0.0, 0.0, 0.1, 0.0, 0.0, 0.0, 0.0, 0.0, 0.0, 0.1, 0.0, 0.0, 0.0, 0.0, 0.0, 0.0, 0.1]
---
header: 
  seq: 559
  stamp: 
    secs: 1512506437
    nsecs: 766983032
  frame_id: odom
child_frame_id: base_link
pose: 
  pose: 
    position: 
      x: 575709.960271
      y: 4148310.7737
      z: 3.43239643238
    orientation: 
      x: -0.0200345605117
      y: -0.025727139167
      z: -0.993476167479
      w: -0.109278704913
  covariance: [0.0, 0.0, 0.0, 0.0, 0.0, 0.0, 0.0, 0.0, 0.0, 0.0, 0.0, 0.0, 0.0, 0.0, 0.0, 0.0, 0.0, 0.0, 0.0, 0.0, 0.0, 1.0071786954488895, 0.0, 0.0, 0.0, 0.0, 0.0, 0.0, 1.0071915892069325, 0.0, 0.0, 0.0, 0.0, 0.0, 0.0, 1.0371150023215046]
twist: 
  twist: 
    linear: 
      x: -0.000490965909473
      y: 4.85495827268e-05
      z: -0.00276357714171
    angular: 
      x: 0.0
      y: 0.0
      z: 0.0
  covariance: [1.0007416614849165, 0.0, 0.0, 0.0, 0.0, 0.0, 0.0, 1.000650716606851, 0.0, 0.0, 0.0, 0.0, 0.0, 0.0, 1.000689593192489, 0.0, 0.0, 0.0, 0.0, 0.0, 0.0, 0.1, 0.0, 0.0, 0.0, 0.0, 0.0, 0.0, 0.1, 0.0, 0.0, 0.0, 0.0, 0.0, 0.0, 0.1]
---
header: 
  seq: 560
  stamp: 
    secs: 1512506437
    nsecs: 783246994
  frame_id: odom
child_frame_id: base_link
pose: 
  pose: 
    position: 
      x: 575709.960273
      y: 4148310.77369
      z: 3.43239270337
    orientation: 
      x: -0.0200452174921
      y: -0.0257227015884
      z: -0.993475747899
      w: -0.109281609682
  covariance: [0.0, 0.0, 0.0, 0.0, 0.0, 0.0, 0.0, 0.0, 0.0, 0.0, 0.0, 0.0, 0.0, 0.0, 0.0, 0.0, 0.0, 0.0, 0.0, 0.0, 0.0, 1.0071786954488895, 0.0, 0.0, 0.0, 0.0, 0.0, 0.0, 1.0071915892069325, 0.0, 0.0, 0.0, 0.0, 0.0, 0.0, 1.0371150023215046]
twist: 
  twist: 
    linear: 
      x: -0.000771118114934
      y: -0.00042916201299
      z: -0.00276661092082
    angular: 
      x: 0.0
      y: 0.0
      z: 0.0
  covariance: [1.0007416614849165, 0.0, 0.0, 0.0, 0.0, 0.0, 0.0, 1.000650716606851, 0.0, 0.0, 0.0, 0.0, 0.0, 0.0, 1.000689593192489, 0.0, 0.0, 0.0, 0.0, 0.0, 0.0, 0.1, 0.0, 0.0, 0.0, 0.0, 0.0, 0.0, 0.1, 0.0, 0.0, 0.0, 0.0, 0.0, 0.0, 0.1]
---
header: 
  seq: 561
  stamp: 
    secs: 1512506437
    nsecs: 811626911
  frame_id: odom
child_frame_id: base_link
pose: 
  pose: 
    position: 
      x: 575709.960278
      y: 4148310.77369
      z: 3.43238522764
    orientation: 
      x: -0.0200549127087
      y: -0.0257224785185
      z: -0.993475467813
      w: -0.109282429643
  covariance: [0.0, 0.0, 0.0, 0.0, 0.0, 0.0, 0.0, 0.0, 0.0, 0.0, 0.0, 0.0, 0.0, 0.0, 0.0, 0.0, 0.0, 0.0, 0.0, 0.0, 0.0, 1.0071786954488895, 0.0, 0.0, 0.0, 0.0, 0.0, 0.0, 1.0071915892069325, 0.0, 0.0, 0.0, 0.0, 0.0, 0.0, 1.0371150023215046]
twist: 
  twist: 
    linear: 
      x: -0.00127245608724
      y: -0.000329475958936
      z: -0.00279075993125
    angular: 
      x: 0.0
      y: 0.0
      z: 0.0
  covariance: [1.0007416614849165, 0.0, 0.0, 0.0, 0.0, 0.0, 0.0, 1.000650716606851, 0.0, 0.0, 0.0, 0.0, 0.0, 0.0, 1.000689593192489, 0.0, 0.0, 0.0, 0.0, 0.0, 0.0, 0.1, 0.0, 0.0, 0.0, 0.0, 0.0, 0.0, 0.1, 0.0, 0.0, 0.0, 0.0, 0.0, 0.0, 0.1]
---
header: 
  seq: 562
  stamp: 
    secs: 1512506437
    nsecs: 823586940
  frame_id: odom
child_frame_id: base_link
pose: 
  pose: 
    position: 
      x: 575709.96028
      y: 4148310.77369
      z: 3.43238148186
    orientation: 
      x: -0.0200453902492
      y: -0.0257226266171
      z: -0.993476235881
      w: -0.109277159326
  covariance: [0.0, 0.0, 0.0, 0.0, 0.0, 0.0, 0.0, 0.0, 0.0, 0.0, 0.0, 0.0, 0.0, 0.0, 0.0, 0.0, 0.0, 0.0, 0.0, 0.0, 0.0, 1.0071786954488895, 0.0, 0.0, 0.0, 0.0, 0.0, 0.0, 1.0071915892069325, 0.0, 0.0, 0.0, 0.0, 0.0, 0.0, 1.0371150023215046]
twist: 
  twist: 
    linear: 
      x: -0.000736538280245
      y: -6.17636608999e-06
      z: -0.00293026980702
    angular: 
      x: 0.0
      y: 0.0
      z: 0.0
  covariance: [1.0007416614849165, 0.0, 0.0, 0.0, 0.0, 0.0, 0.0, 1.000650716606851, 0.0, 0.0, 0.0, 0.0, 0.0, 0.0, 1.000689593192489, 0.0, 0.0, 0.0, 0.0, 0.0, 0.0, 0.1, 0.0, 0.0, 0.0, 0.0, 0.0, 0.0, 0.1, 0.0, 0.0, 0.0, 0.0, 0.0, 0.0, 0.1]
---
header: 
  seq: 563
  stamp: 
    secs: 1512506437
    nsecs: 842984914
  frame_id: odom
child_frame_id: base_link
pose: 
  pose: 
    position: 
      x: 575709.960283
      y: 4148310.77369
      z: 3.4323777277
    orientation: 
      x: -0.0200480575344
      y: -0.0257335996595
      z: -0.993475478524
      w: -0.109280971856
  covariance: [0.0, 0.0, 0.0, 0.0, 0.0, 0.0, 0.0, 0.0, 0.0, 0.0, 0.0, 0.0, 0.0, 0.0, 0.0, 0.0, 0.0, 0.0, 0.0, 0.0, 0.0, 1.0071786954488895, 0.0, 0.0, 0.0, 0.0, 0.0, 0.0, 1.0071915892069325, 0.0, 0.0, 0.0, 0.0, 0.0, 0.0, 1.0371150023215046]
twist: 
  twist: 
    linear: 
      x: -0.000641637428429
      y: -0.000287418691037
      z: -0.00274286331383
    angular: 
      x: 0.0
      y: 0.0
      z: 0.0
  covariance: [1.0007416614849165, 0.0, 0.0, 0.0, 0.0, 0.0, 0.0, 1.000650716606851, 0.0, 0.0, 0.0, 0.0, 0.0, 0.0, 1.000689593192489, 0.0, 0.0, 0.0, 0.0, 0.0, 0.0, 0.1, 0.0, 0.0, 0.0, 0.0, 0.0, 0.0, 0.1, 0.0, 0.0, 0.0, 0.0, 0.0, 0.0, 0.1]
---
header: 
  seq: 564
  stamp: 
    secs: 1512506437
    nsecs: 863620996
  frame_id: odom
child_frame_id: base_link
pose: 
  pose: 
    position: 
      x: 575709.960285
      y: 4148310.77368
      z: 3.43237396609
    orientation: 
      x: -0.0200479544669
      y: -0.0257313223214
      z: -0.99347569955
      w: -0.109279517645
  covariance: [0.0, 0.0, 0.0, 0.0, 0.0, 0.0, 0.0, 0.0, 0.0, 0.0, 0.0, 0.0, 0.0, 0.0, 0.0, 0.0, 0.0, 0.0, 0.0, 0.0, 0.0, 1.0071786954488895, 0.0, 0.0, 0.0, 0.0, 0.0, 0.0, 1.0071915892069325, 0.0, 0.0, 0.0, 0.0, 0.0, 0.0, 1.0371150023215046]
twist: 
  twist: 
    linear: 
      x: -0.000909321137868
      y: 0.000147433812377
      z: -0.00262114758302
    angular: 
      x: 0.0
      y: 0.0
      z: 0.0
  covariance: [1.0007416614849165, 0.0, 0.0, 0.0, 0.0, 0.0, 0.0, 1.000650716606851, 0.0, 0.0, 0.0, 0.0, 0.0, 0.0, 1.000689593192489, 0.0, 0.0, 0.0, 0.0, 0.0, 0.0, 0.1, 0.0, 0.0, 0.0, 0.0, 0.0, 0.0, 0.1, 0.0, 0.0, 0.0, 0.0, 0.0, 0.0, 0.1]
---
header: 
  seq: 565
  stamp: 
    secs: 1512506437
    nsecs: 884150028
  frame_id: odom
child_frame_id: base_link
pose: 
  pose: 
    position: 
      x: 575709.960288
      y: 4148310.77368
      z: 3.43237019423
    orientation: 
      x: -0.0200471563226
      y: -0.0257185679174
      z: -0.993474559971
      w: -0.109293025755
  covariance: [0.0, 0.0, 0.0, 0.0, 0.0, 0.0, 0.0, 0.0, 0.0, 0.0, 0.0, 0.0, 0.0, 0.0, 0.0, 0.0, 0.0, 0.0, 0.0, 0.0, 0.0, 1.0071786954488895, 0.0, 0.0, 0.0, 0.0, 0.0, 0.0, 1.0071915892069325, 0.0, 0.0, 0.0, 0.0, 0.0, 0.0, 1.0371150023215046]
twist: 
  twist: 
    linear: 
      x: -0.000284071286811
      y: -0.000440954819666
      z: -0.00254980118657
    angular: 
      x: 0.0
      y: 0.0
      z: 0.0
  covariance: [1.0007416614849165, 0.0, 0.0, 0.0, 0.0, 0.0, 0.0, 1.000650716606851, 0.0, 0.0, 0.0, 0.0, 0.0, 0.0, 1.000689593192489, 0.0, 0.0, 0.0, 0.0, 0.0, 0.0, 0.1, 0.0, 0.0, 0.0, 0.0, 0.0, 0.0, 0.1, 0.0, 0.0, 0.0, 0.0, 0.0, 0.0, 0.1]
---
header: 
  seq: 566
  stamp: 
    secs: 1512506437
    nsecs: 908571004
  frame_id: odom
child_frame_id: base_link
pose: 
  pose: 
    position: 
      x: 575709.960292
      y: 4148310.77368
      z: 3.43236263283
    orientation: 
      x: -0.0200427552227
      y: -0.02571748104
      z: -0.993475949778
      w: -0.109281454714
  covariance: [0.0, 0.0, 0.0, 0.0, 0.0, 0.0, 0.0, 0.0, 0.0, 0.0, 0.0, 0.0, 0.0, 0.0, 0.0, 0.0, 0.0, 0.0, 0.0, 0.0, 0.0, 1.0071786954488895, 0.0, 0.0, 0.0, 0.0, 0.0, 0.0, 1.0071915892069325, 0.0, 0.0, 0.0, 0.0, 0.0, 0.0, 1.0371150023215046]
twist: 
  twist: 
    linear: 
      x: -0.000285208240592
      y: -0.000271708305786
      z: -0.00292818777091
    angular: 
      x: 0.0
      y: 0.0
      z: 0.0
  covariance: [1.0007416614849165, 0.0, 0.0, 0.0, 0.0, 0.0, 0.0, 1.000650716606851, 0.0, 0.0, 0.0, 0.0, 0.0, 0.0, 1.000689593192489, 0.0, 0.0, 0.0, 0.0, 0.0, 0.0, 0.1, 0.0, 0.0, 0.0, 0.0, 0.0, 0.0, 0.1, 0.0, 0.0, 0.0, 0.0, 0.0, 0.0, 0.1]
---
header: 
  seq: 567
  stamp: 
    secs: 1512506437
    nsecs: 924943923
  frame_id: odom
child_frame_id: base_link
pose: 
  pose: 
    position: 
      x: 575709.960295
      y: 4148310.77368
      z: 3.43235884421
    orientation: 
      x: -0.0200288127093
      y: -0.0257227608382
      z: -0.99347518992
      w: -0.109289675856
  covariance: [0.0, 0.0, 0.0, 0.0, 0.0, 0.0, 0.0, 0.0, 0.0, 0.0, 0.0, 0.0, 0.0, 0.0, 0.0, 0.0, 0.0, 0.0, 0.0, 0.0, 0.0, 1.0071786954488895, 0.0, 0.0, 0.0, 0.0, 0.0, 0.0, 1.0071915892069325, 0.0, 0.0, 0.0, 0.0, 0.0, 0.0, 1.0371150023215046]
twist: 
  twist: 
    linear: 
      x: 0.000417846139433
      y: -0.000553539364884
      z: -0.00315423056713
    angular: 
      x: 0.0
      y: 0.0
      z: 0.0
  covariance: [1.0007416614849165, 0.0, 0.0, 0.0, 0.0, 0.0, 0.0, 1.000650716606851, 0.0, 0.0, 0.0, 0.0, 0.0, 0.0, 1.000689593192489, 0.0, 0.0, 0.0, 0.0, 0.0, 0.0, 0.1, 0.0, 0.0, 0.0, 0.0, 0.0, 0.0, 0.1, 0.0, 0.0, 0.0, 0.0, 0.0, 0.0, 0.1]
---
header: 
  seq: 568
  stamp: 
    secs: 1512506437
    nsecs: 943383932
  frame_id: odom
child_frame_id: base_link
pose: 
  pose: 
    position: 
      x: 575709.960297
      y: 4148310.77367
      z: 3.43235504627
    orientation: 
      x: -0.0200374959747
      y: -0.025722902077
      z: -0.993474873067
      w: -0.109290931224
  covariance: [0.0, 0.0, 0.0, 0.0, 0.0, 0.0, 0.0, 0.0, 0.0, 0.0, 0.0, 0.0, 0.0, 0.0, 0.0, 0.0, 0.0, 0.0, 0.0, 0.0, 0.0, 1.0071786954488895, 0.0, 0.0, 0.0, 0.0, 0.0, 0.0, 1.0071915892069325, 0.0, 0.0, 0.0, 0.0, 0.0, 0.0, 1.0371150023215046]
twist: 
  twist: 
    linear: 
      x: -0.000141480232242
      y: -0.000540398946357
      z: -0.00303556304761
    angular: 
      x: 0.0
      y: 0.0
      z: 0.0
  covariance: [1.0007416614849165, 0.0, 0.0, 0.0, 0.0, 0.0, 0.0, 1.000650716606851, 0.0, 0.0, 0.0, 0.0, 0.0, 0.0, 1.000689593192489, 0.0, 0.0, 0.0, 0.0, 0.0, 0.0, 0.1, 0.0, 0.0, 0.0, 0.0, 0.0, 0.0, 0.1, 0.0, 0.0, 0.0, 0.0, 0.0, 0.0, 0.1]
---
header: 
  seq: 569
  stamp: 
    secs: 1512506437
    nsecs: 964090108
  frame_id: odom
child_frame_id: base_link
pose: 
  pose: 
    position: 
      x: 575709.9603
      y: 4148310.77367
      z: 3.43235123716
    orientation: 
      x: -0.0200339485769
      y: -0.0257217989937
      z: -0.993475351077
      w: -0.109287495917
  covariance: [0.0, 0.0, 0.0, 0.0, 0.0, 0.0, 0.0, 0.0, 0.0, 0.0, 0.0, 0.0, 0.0, 0.0, 0.0, 0.0, 0.0, 0.0, 0.0, 0.0, 0.0, 1.0071786954488895, 0.0, 0.0, 0.0, 0.0, 0.0, 0.0, 1.0071915892069325, 0.0, 0.0, 0.0, 0.0, 0.0, 0.0, 1.0371150023215046]
twist: 
  twist: 
    linear: 
      x: -0.000278631915161
      y: -0.000440055610092
      z: -0.00300955780422
    angular: 
      x: 0.0
      y: 0.0
      z: 0.0
  covariance: [1.0007416614849165, 0.0, 0.0, 0.0, 0.0, 0.0, 0.0, 1.000650716606851, 0.0, 0.0, 0.0, 0.0, 0.0, 0.0, 1.000689593192489, 0.0, 0.0, 0.0, 0.0, 0.0, 0.0, 0.1, 0.0, 0.0, 0.0, 0.0, 0.0, 0.0, 0.1, 0.0, 0.0, 0.0, 0.0, 0.0, 0.0, 0.1]
---
header: 
  seq: 570
  stamp: 
    secs: 1512506437
    nsecs: 984795093
  frame_id: odom
child_frame_id: base_link
pose: 
  pose: 
    position: 
      x: 575709.960302
      y: 4148310.77367
      z: 3.4323474206
    orientation: 
      x: -0.0200332873753
      y: -0.0257300244718
      z: -0.993474624807
      w: -0.1092922829
  covariance: [0.0, 0.0, 0.0, 0.0, 0.0, 0.0, 0.0, 0.0, 0.0, 0.0, 0.0, 0.0, 0.0, 0.0, 0.0, 0.0, 0.0, 0.0, 0.0, 0.0, 0.0, 1.0071786954488895, 0.0, 0.0, 0.0, 0.0, 0.0, 0.0, 1.0071915892069325, 0.0, 0.0, 0.0, 0.0, 0.0, 0.0, 1.0371150023215046]
twist: 
  twist: 
    linear: 
      x: -0.00019160527058
      y: -0.000424071250786
      z: -0.00307961637829
    angular: 
      x: 0.0
      y: 0.0
      z: 0.0
  covariance: [1.0007416614849165, 0.0, 0.0, 0.0, 0.0, 0.0, 0.0, 1.000650716606851, 0.0, 0.0, 0.0, 0.0, 0.0, 0.0, 1.000689593192489, 0.0, 0.0, 0.0, 0.0, 0.0, 0.0, 0.1, 0.0, 0.0, 0.0, 0.0, 0.0, 0.0, 0.1, 0.0, 0.0, 0.0, 0.0, 0.0, 0.0, 0.1]
---
header: 
  seq: 571
  stamp: 
    secs: 1512506438
    nsecs:  61253070
  frame_id: odom
child_frame_id: base_link
pose: 
  pose: 
    position: 
      x: 575709.960307
      y: 4148310.77367
      z: 3.43233976886
    orientation: 
      x: -0.0200483854643
      y: -0.0257191727514
      z: -0.993474335167
      w: -0.109294701413
  covariance: [0.0, 0.0, 0.0, 0.0, 0.0, 0.0, 0.0, 0.0, 0.0, 0.0, 0.0, 0.0, 0.0, 0.0, 0.0, 0.0, 0.0, 0.0, 0.0, 0.0, 0.0, 1.0071786954488895, 0.0, 0.0, 0.0, 0.0, 0.0, 0.0, 1.0071915892069325, 0.0, 0.0, 0.0, 0.0, 0.0, 0.0, 1.0371150023215046]
twist: 
  twist: 
    linear: 
      x: -0.000442245853969
      y: -0.000796908087551
      z: -0.00292265544656
    angular: 
      x: 0.0
      y: 0.0
      z: 0.0
  covariance: [1.0007416614849165, 0.0, 0.0, 0.0, 0.0, 0.0, 0.0, 1.000650716606851, 0.0, 0.0, 0.0, 0.0, 0.0, 0.0, 1.000689593192489, 0.0, 0.0, 0.0, 0.0, 0.0, 0.0, 0.1, 0.0, 0.0, 0.0, 0.0, 0.0, 0.0, 0.1, 0.0, 0.0, 0.0, 0.0, 0.0, 0.0, 0.1]
---
header: 
  seq: 572
  stamp: 
    secs: 1512506438
    nsecs:  63148975
  frame_id: odom
child_frame_id: base_link
pose: 
  pose: 
    position: 
      x: 575709.960307
      y: 4148310.77367
      z: 3.43233976886
    orientation: 
      x: -0.0200483854643
      y: -0.0257191727514
      z: -0.993474335167
      w: -0.109294701413
  covariance: [0.0, 0.0, 0.0, 0.0, 0.0, 0.0, 0.0, 0.0, 0.0, 0.0, 0.0, 0.0, 0.0, 0.0, 0.0, 0.0, 0.0, 0.0, 0.0, 0.0, 0.0, 1.0071786954488895, 0.0, 0.0, 0.0, 0.0, 0.0, 0.0, 1.0071915892069325, 0.0, 0.0, 0.0, 0.0, 0.0, 0.0, 1.0371150023215046]
twist: 
  twist: 
    linear: 
      x: -0.000442245853969
      y: -0.000796908087551
      z: -0.00292265544656
    angular: 
      x: 0.0
      y: 0.0
      z: 0.0
  covariance: [1.0007416614849165, 0.0, 0.0, 0.0, 0.0, 0.0, 0.0, 1.000650716606851, 0.0, 0.0, 0.0, 0.0, 0.0, 0.0, 1.000689593192489, 0.0, 0.0, 0.0, 0.0, 0.0, 0.0, 0.1, 0.0, 0.0, 0.0, 0.0, 0.0, 0.0, 0.1, 0.0, 0.0, 0.0, 0.0, 0.0, 0.0, 0.1]
---
header: 
  seq: 573
  stamp: 
    secs: 1512506438
    nsecs:  67874908
  frame_id: odom
child_frame_id: base_link
pose: 
  pose: 
    position: 
      x: 575709.960309
      y: 4148310.77366
      z: 3.4323359346
    orientation: 
      x: -0.0200413806078
      y: -0.0257238908464
      z: -0.993474803103
      w: -0.109290622208
  covariance: [0.0, 0.0, 0.0, 0.0, 0.0, 0.0, 0.0, 0.0, 0.0, 0.0, 0.0, 0.0, 0.0, 0.0, 0.0, 0.0, 0.0, 0.0, 0.0, 0.0, 0.0, 1.0071786954488895, 0.0, 0.0, 0.0, 0.0, 0.0, 0.0, 1.0071915892069325, 0.0, 0.0, 0.0, 0.0, 0.0, 0.0, 1.0371150023215046]
twist: 
  twist: 
    linear: 
      x: -0.000278689902353
      y: 4.83454693654e-05
      z: -0.00335127871816
    angular: 
      x: 0.0
      y: 0.0
      z: 0.0
  covariance: [1.0007416614849165, 0.0, 0.0, 0.0, 0.0, 0.0, 0.0, 1.000650716606851, 0.0, 0.0, 0.0, 0.0, 0.0, 0.0, 1.000689593192489, 0.0, 0.0, 0.0, 0.0, 0.0, 0.0, 0.1, 0.0, 0.0, 0.0, 0.0, 0.0, 0.0, 0.1, 0.0, 0.0, 0.0, 0.0, 0.0, 0.0, 0.1]
---
header: 
  seq: 574
  stamp: 
    secs: 1512506438
    nsecs:  70971965
  frame_id: odom
child_frame_id: base_link
pose: 
  pose: 
    position: 
      x: 575709.960311
      y: 4148310.77366
      z: 3.43233209476
    orientation: 
      x: -0.0200234563377
      y: -0.0257353200159
      z: -0.993475971057
      w: -0.109280599527
  covariance: [0.0, 0.0, 0.0, 0.0, 0.0, 0.0, 0.0, 0.0, 0.0, 0.0, 0.0, 0.0, 0.0, 0.0, 0.0, 0.0, 0.0, 0.0, 0.0, 0.0, 0.0, 1.0071780654268199, 0.0, 0.0, 0.0, 0.0, 0.0, 0.0, 1.0071908271891101, 0.0, 0.0, 0.0, 0.0, 0.0, 0.0, 1.037181895859417]
twist: 
  twist: 
    linear: 
      x: -0.000243276020737
      y: 0.000279558796381
      z: -0.00188252245145
    angular: 
      x: 0.0
      y: 0.0
      z: 0.0
  covariance: [1.000741703072609, 0.0, 0.0, 0.0, 0.0, 0.0, 0.0, 1.0006507439795624, 0.0, 0.0, 0.0, 0.0, 0.0, 0.0, 1.0006896275913923, 0.0, 0.0, 0.0, 0.0, 0.0, 0.0, 0.1, 0.0, 0.0, 0.0, 0.0, 0.0, 0.0, 0.1, 0.0, 0.0, 0.0, 0.0, 0.0, 0.0, 0.1]
---
header: 
  seq: 575
  stamp: 
    secs: 1512506438
    nsecs:  74296951
  frame_id: odom
child_frame_id: base_link
pose: 
  pose: 
    position: 
      x: 575709.960314
      y: 4148310.77366
      z: 3.43232825305
    orientation: 
      x: -0.020008985722
      y: -0.0257484474098
      z: -0.993475189549
      w: -0.109287262279
  covariance: [0.0, 0.0, 0.0, 0.0, 0.0, 0.0, 0.0, 0.0, 0.0, 0.0, 0.0, 0.0, 0.0, 0.0, 0.0, 0.0, 0.0, 0.0, 0.0, 0.0, 0.0, 1.0071780654268199, 0.0, 0.0, 0.0, 0.0, 0.0, 0.0, 1.0071908271891101, 0.0, 0.0, 0.0, 0.0, 0.0, 0.0, 1.037181895859417]
twist: 
  twist: 
    linear: 
      x: -0.00035009058577
      y: 0.000303775591724
      z: -0.00179028864255
    angular: 
      x: 0.0
      y: 0.0
      z: 0.0
  covariance: [1.000741703072609, 0.0, 0.0, 0.0, 0.0, 0.0, 0.0, 1.0006507439795624, 0.0, 0.0, 0.0, 0.0, 0.0, 0.0, 1.0006896275913923, 0.0, 0.0, 0.0, 0.0, 0.0, 0.0, 0.1, 0.0, 0.0, 0.0, 0.0, 0.0, 0.0, 0.1, 0.0, 0.0, 0.0, 0.0, 0.0, 0.0, 0.1]
---
header: 
  seq: 576
  stamp: 
    secs: 1512506438
    nsecs:  86239099
  frame_id: odom
child_frame_id: base_link
pose: 
  pose: 
    position: 
      x: 575709.960316
      y: 4148310.77366
      z: 3.4323244039
    orientation: 
      x: -0.0200141185346
      y: -0.0257398985576
      z: -0.993475098788
      w: -0.109289161264
  covariance: [0.0, 0.0, 0.0, 0.0, 0.0, 0.0, 0.0, 0.0, 0.0, 0.0, 0.0, 0.0, 0.0, 0.0, 0.0, 0.0, 0.0, 0.0, 0.0, 0.0, 0.0, 1.0071780654268199, 0.0, 0.0, 0.0, 0.0, 0.0, 0.0, 1.0071908271891101, 0.0, 0.0, 0.0, 0.0, 0.0, 0.0, 1.037181895859417]
twist: 
  twist: 
    linear: 
      x: 4.16453003197e-05
      y: 0.000866293320779
      z: -0.0017991732255
    angular: 
      x: 0.0
      y: 0.0
      z: 0.0
  covariance: [1.000741703072609, 0.0, 0.0, 0.0, 0.0, 0.0, 0.0, 1.0006507439795624, 0.0, 0.0, 0.0, 0.0, 0.0, 0.0, 1.0006896275913923, 0.0, 0.0, 0.0, 0.0, 0.0, 0.0, 0.1, 0.0, 0.0, 0.0, 0.0, 0.0, 0.0, 0.1, 0.0, 0.0, 0.0, 0.0, 0.0, 0.0, 0.1]
---
header: 
  seq: 577
  stamp: 
    secs: 1512506438
    nsecs: 110388040
  frame_id: odom
child_frame_id: base_link
pose: 
  pose: 
    position: 
      x: 575709.960321
      y: 4148310.77365
      z: 3.43231669907
    orientation: 
      x: -0.0200333045107
      y: -0.0257471332905
      z: -0.993475470441
      w: -0.109280563091
  covariance: [0.0, 0.0, 0.0, 0.0, 0.0, 0.0, 0.0, 0.0, 0.0, 0.0, 0.0, 0.0, 0.0, 0.0, 0.0, 0.0, 0.0, 0.0, 0.0, 0.0, 0.0, 1.0071780654268199, 0.0, 0.0, 0.0, 0.0, 0.0, 0.0, 1.0071908271891101, 0.0, 0.0, 0.0, 0.0, 0.0, 0.0, 1.037181895859417]
twist: 
  twist: 
    linear: 
      x: -0.000533276299779
      y: 0.000222319571163
      z: -0.00186491920633
    angular: 
      x: 0.0
      y: 0.0
      z: 0.0
  covariance: [1.000741703072609, 0.0, 0.0, 0.0, 0.0, 0.0, 0.0, 1.0006507439795624, 0.0, 0.0, 0.0, 0.0, 0.0, 0.0, 1.0006896275913923, 0.0, 0.0, 0.0, 0.0, 0.0, 0.0, 0.1, 0.0, 0.0, 0.0, 0.0, 0.0, 0.0, 0.1, 0.0, 0.0, 0.0, 0.0, 0.0, 0.0, 0.1]
---
header: 
  seq: 578
  stamp: 
    secs: 1512506438
    nsecs: 127146005
  frame_id: odom
child_frame_id: base_link
pose: 
  pose: 
    position: 
      x: 575709.960323
      y: 4148310.77365
      z: 3.43231284153
    orientation: 
      x: -0.0200359634151
      y: -0.0257403697967
      z: -0.993474817697
      w: -0.109287602845
  covariance: [0.0, 0.0, 0.0, 0.0, 0.0, 0.0, 0.0, 0.0, 0.0, 0.0, 0.0, 0.0, 0.0, 0.0, 0.0, 0.0, 0.0, 0.0, 0.0, 0.0, 0.0, 1.0071780654268199, 0.0, 0.0, 0.0, 0.0, 0.0, 0.0, 1.0071908271891101, 0.0, 0.0, 0.0, 0.0, 0.0, 0.0, 1.037181895859417]
twist: 
  twist: 
    linear: 
      x: -0.000251267078659
      y: 0.000323175989518
      z: -0.00190449342621
    angular: 
      x: 0.0
      y: 0.0
      z: 0.0
  covariance: [1.000741703072609, 0.0, 0.0, 0.0, 0.0, 0.0, 0.0, 1.0006507439795624, 0.0, 0.0, 0.0, 0.0, 0.0, 0.0, 1.0006896275913923, 0.0, 0.0, 0.0, 0.0, 0.0, 0.0, 0.1, 0.0, 0.0, 0.0, 0.0, 0.0, 0.0, 0.1, 0.0, 0.0, 0.0, 0.0, 0.0, 0.0, 0.1]
---
header: 
  seq: 579
  stamp: 
    secs: 1512506438
    nsecs: 143416881
  frame_id: odom
child_frame_id: base_link
pose: 
  pose: 
    position: 
      x: 575709.960326
      y: 4148310.77365
      z: 3.43230897747
    orientation: 
      x: -0.0200360562302
      y: -0.0257334684653
      z: -0.993474929499
      w: -0.109288194735
  covariance: [0.0, 0.0, 0.0, 0.0, 0.0, 0.0, 0.0, 0.0, 0.0, 0.0, 0.0, 0.0, 0.0, 0.0, 0.0, 0.0, 0.0, 0.0, 0.0, 0.0, 0.0, 1.0071780654268199, 0.0, 0.0, 0.0, 0.0, 0.0, 0.0, 1.0071908271891101, 0.0, 0.0, 0.0, 0.0, 0.0, 0.0, 1.037181895859417]
twist: 
  twist: 
    linear: 
      x: -0.000608446067454
      y: -0.000221077259733
      z: -0.00223067690985
    angular: 
      x: 0.0
      y: 0.0
      z: 0.0
  covariance: [1.000741703072609, 0.0, 0.0, 0.0, 0.0, 0.0, 0.0, 1.0006507439795624, 0.0, 0.0, 0.0, 0.0, 0.0, 0.0, 1.0006896275913923, 0.0, 0.0, 0.0, 0.0, 0.0, 0.0, 0.1, 0.0, 0.0, 0.0, 0.0, 0.0, 0.0, 0.1, 0.0, 0.0, 0.0, 0.0, 0.0, 0.0, 0.1]
---
header: 
  seq: 580
  stamp: 
    secs: 1512506438
    nsecs: 164352893
  frame_id: odom
child_frame_id: base_link
pose: 
  pose: 
    position: 
      x: 575709.960328
      y: 4148310.77365
      z: 3.43230510689
    orientation: 
      x: -0.0200474398302
      y: -0.0257407501444
      z: -0.993474647034
      w: -0.109286960056
  covariance: [0.0, 0.0, 0.0, 0.0, 0.0, 0.0, 0.0, 0.0, 0.0, 0.0, 0.0, 0.0, 0.0, 0.0, 0.0, 0.0, 0.0, 0.0, 0.0, 0.0, 0.0, 1.0071780654268199, 0.0, 0.0, 0.0, 0.0, 0.0, 0.0, 1.0071908271891101, 0.0, 0.0, 0.0, 0.0, 0.0, 0.0, 1.037181895859417]
twist: 
  twist: 
    linear: 
      x: -0.000176702481327
      y: -0.000343530067676
      z: -0.00245032796863
    angular: 
      x: 0.0
      y: 0.0
      z: 0.0
  covariance: [1.000741703072609, 0.0, 0.0, 0.0, 0.0, 0.0, 0.0, 1.0006507439795624, 0.0, 0.0, 0.0, 0.0, 0.0, 0.0, 1.0006896275913923, 0.0, 0.0, 0.0, 0.0, 0.0, 0.0, 0.1, 0.0, 0.0, 0.0, 0.0, 0.0, 0.0, 0.1, 0.0, 0.0, 0.0, 0.0, 0.0, 0.0, 0.1]
---
header: 
  seq: 581
  stamp: 
    secs: 1512506438
    nsecs: 183428049
  frame_id: odom
