header: 
  seq: 4508
  stamp: 
    secs: 1512506437
    nsecs: 4294467208
  frame_id: gps
status: 
  status: 0
  service: 3
latitude: 37.4786181
longitude: -122.1437017
altitude: -28.141
position_covariance: [0.0018489999999999997, 0.0, 0.0, 0.0, 0.0018489999999999997, 0.0, 0.0, 0.0, 0.0038439999999999998]
position_covariance_type: 2
---
header: 
  seq: 4509
  stamp: 
    secs: 1512506437
    nsecs: 199499809
  frame_id: gps
status: 
  status: 0
  service: 3
latitude: 37.4786181
longitude: -122.1437017
altitude: -28.143
position_covariance: [0.0017640000000000002, 0.0, 0.0, 0.0, 0.0017640000000000002, 0.0, 0.0, 0.0, 0.003721]
position_covariance_type: 2
---
header: 
  seq: 4510
  stamp: 
    secs: 1512506437
    nsecs: 400499707
  frame_id: gps
status: 
  status: 0
  service: 3
latitude: 37.4786181
longitude: -122.1437017
altitude: -28.142
position_covariance: [0.0018489999999999997, 0.0, 0.0, 0.0, 0.0018489999999999997, 0.0, 0.0, 0.0, 0.003721]
position_covariance_type: 2
---
header: 
  seq: 4511
  stamp: 
    secs: 1512506437
    nsecs: 600499605
  frame_id: gps
status: 
  status: 0
  service: 3
latitude: 37.4786182
longitude: -122.1437017
altitude: -28.138
position_covariance: [0.0018489999999999997, 0.0, 0.0, 0.0, 0.0018489999999999997, 0.0, 0.0, 0.0, 0.003721]
position_covariance_type: 2
---
header: 
  seq: 4512
  stamp: 
    secs: 1512506437
    nsecs: 800499504
  frame_id: gps
status: 
  status: 0
  service: 3
latitude: 37.4786182
longitude: -122.1437017
altitude: -28.142
position_covariance: [0.0017640000000000002, 0.0, 0.0, 0.0, 0.0017640000000000002, 0.0, 0.0, 0.0, 0.003721]
position_covariance_type: 2
---
header: 
  seq: 4513
  stamp: 
    secs: 1512506438
    nsecs:    499402
  frame_id: gps
status: 
  status: 0
  service: 3
latitude: 37.4786182
longitude: -122.1437017
altitude: -28.146
position_covariance: [0.0017640000000000002, 0.0, 0.0, 0.0, 0.0017640000000000002, 0.0, 0.0, 0.0, 0.003721]
position_covariance_type: 2
---
header: 
  seq: 4514
  stamp: 
    secs: 1512506438
    nsecs: 200499300
  frame_id: gps
status: 
  status: 0
  service: 3
latitude: 37.4786182
longitude: -122.1437017
altitude: -28.136
position_covariance: [0.0017640000000000002, 0.0, 0.0, 0.0, 0.0017640000000000002, 0.0, 0.0, 0.0, 0.0036]
position_covariance_type: 2
---
header: 
  seq: 4515
  stamp: 
    secs: 1512506438
    nsecs: 400499199
  frame_id: gps
status: 
  status: 0
  service: 3
latitude: 37.4786182
longitude: -122.1437017
altitude: -28.126
position_covariance: [0.0017640000000000002, 0.0, 0.0, 0.0, 0.0017640000000000002, 0.0, 0.0, 0.0, 0.0036]
position_covariance_type: 2
---
header: 
  seq: 4516
  stamp: 
    secs: 1512506438
    nsecs: 600499096
  frame_id: gps
status: 
  status: 0
  service: 3
latitude: 37.4786182
longitude: -122.1437017
altitude: -28.13
position_covariance: [0.0017640000000000002, 0.0, 0.0, 0.0, 0.0017640000000000002, 0.0, 0.0, 0.0, 0.0036]
position_covariance_type: 2
---
header: 
  seq: 4517
  stamp: 
    secs: 1512506438
    nsecs: 800498995
  frame_id: gps
status: 
  status: 0
  service: 3
latitude: 37.4786182
longitude: -122.1437017
altitude: -28.13
position_covariance: [0.0017640000000000002, 0.0, 0.0, 0.0, 0.0017640000000000002, 0.0, 0.0, 0.0, 0.0036]
position_covariance_type: 2
---
header: 
  seq: 4518
  stamp: 
    secs: 1512506439
    nsecs:    498893
  frame_id: gps
status: 
  status: 0
  service: 3
latitude: 37.4786182
longitude: -122.1437017
altitude: -28.129
position_covariance: [0.0017640000000000002, 0.0, 0.0, 0.0, 0.0017640000000000002, 0.0, 0.0, 0.0, 0.0036]
position_covariance_type: 2
---
header: 
  seq: 4519
  stamp: 
    secs: 1512506439
    nsecs: 200498791
  frame_id: gps
status: 
  status: 0
  service: 3
latitude: 37.4786183
longitude: -122.1437017
altitude: -28.124
position_covariance: [0.0017640000000000002, 0.0, 0.0, 0.0, 0.0017640000000000002, 0.0, 0.0, 0.0, 0.0036]
position_covariance_type: 2
---
header: 
  seq: 4520
  stamp: 
    secs: 1512506439
    nsecs: 400498689
  frame_id: gps
status: 
  status: 0
  service: 3
latitude: 37.4786182
longitude: -122.1437017
altitude: -28.121
position_covariance: [0.0017640000000000002, 0.0, 0.0, 0.0, 0.0017640000000000002, 0.0, 0.0, 0.0, 0.0036]
position_covariance_type: 2
---
header: 
  seq: 4521
  stamp: 
    secs: 1512506439
    nsecs: 600498587
  frame_id: gps
status: 
  status: 0
  service: 3
latitude: 37.4786182
longitude: -122.1437017
altitude: -28.12
position_covariance: [0.0017640000000000002, 0.0, 0.0, 0.0, 0.0017640000000000002, 0.0, 0.0, 0.0, 0.0036]
position_covariance_type: 2
---
header: 
  seq: 4522
  stamp: 
    secs: 1512506439
    nsecs: 800498485
  frame_id: gps
status: 
  status: 0
  service: 3
latitude: 37.4786182
longitude: -122.1437017
altitude: -28.121
position_covariance: [0.0017640000000000002, 0.0, 0.0, 0.0, 0.0017640000000000002, 0.0, 0.0, 0.0, 0.0036]
position_covariance_type: 2
---
header: 
  seq: 4523
  stamp: 
    secs: 1512506440
    nsecs:    498383
  frame_id: gps
status: 
  status: 0
  service: 3
latitude: 37.4786182
longitude: -122.1437017
altitude: -28.121
position_covariance: [0.0017640000000000002, 0.0, 0.0, 0.0, 0.0017640000000000002, 0.0, 0.0, 0.0, 0.0036]
position_covariance_type: 2
---
header: 
  seq: 4524
  stamp: 
    secs: 1512506440
    nsecs: 200498281
  frame_id: gps
status: 
  status: 0
  service: 3
latitude: 37.4786183
longitude: -122.1437017
altitude: -28.116
position_covariance: [0.0016810000000000002, 0.0, 0.0, 0.0, 0.0016810000000000002, 0.0, 0.0, 0.0, 0.0036]
position_covariance_type: 2
---
header: 
  seq: 4525
  stamp: 
    secs: 1512506440
    nsecs: 400498179
  frame_id: gps
status: 
  status: 0
  service: 3
latitude: 37.4786183
longitude: -122.1437017
altitude: -28.117
position_covariance: [0.0016810000000000002, 0.0, 0.0, 0.0, 0.0016810000000000002, 0.0, 0.0, 0.0, 0.0036]
position_covariance_type: 2
---
header: 
  seq: 4526
  stamp: 
    secs: 1512506440
    nsecs: 600498077
  frame_id: gps
status: 
  status: 0
  service: 3
latitude: 37.4786182
longitude: -122.1437017
altitude: -28.115
position_covariance: [0.0016810000000000002, 0.0, 0.0, 0.0, 0.0016810000000000002, 0.0, 0.0, 0.0, 0.0036]
position_covariance_type: 2
---
header: 
  seq: 4527
  stamp: 
    secs: 1512506440
    nsecs: 800497975
  frame_id: gps
status: 
  status: 0
  service: 3
latitude: 37.4786182
longitude: -122.1437017
altitude: -28.116
position_covariance: [0.0016810000000000002, 0.0, 0.0, 0.0, 0.0016810000000000002, 0.0, 0.0, 0.0, 0.0036]
position_covariance_type: 2
---
header: 
  seq: 4528
  stamp: 
    secs: 1512506441
    nsecs:    497873
  frame_id: gps
status: 
  status: 0
  service: 3
latitude: 37.4786183
longitude: -122.1437017
altitude: -28.117
position_covariance: [0.0016810000000000002, 0.0, 0.0, 0.0, 0.0016810000000000002, 0.0, 0.0, 0.0, 0.0036]
position_covariance_type: 2
---
header: 
  seq: 4529
  stamp: 
    secs: 1512506441
    nsecs: 200497772
  frame_id: gps
status: 
  status: 0
  service: 3
latitude: 37.4786183
longitude: -122.1437019
altitude: -28.118
position_covariance: [0.0017640000000000002, 0.0, 0.0, 0.0, 0.0017640000000000002, 0.0, 0.0, 0.0, 0.0036]
position_covariance_type: 2
---
header: 
  seq: 4530
  stamp: 
    secs: 1512506441
    nsecs: 400497670
  frame_id: gps
status: 
  status: 0
  service: 3
latitude: 37.4786183
longitude: -122.1437019
altitude: -28.119
position_covariance: [0.0017640000000000002, 0.0, 0.0, 0.0, 0.0017640000000000002, 0.0, 0.0, 0.0, 0.0036]
position_covariance_type: 2
---
header: 
  seq: 4531
  stamp: 
    secs: 1512506441
    nsecs: 600497568
  frame_id: gps
status: 
  status: 0
  service: 3
latitude: 37.4786183
longitude: -122.143702
altitude: -28.124
position_covariance: [0.0017640000000000002, 0.0, 0.0, 0.0, 0.0017640000000000002, 0.0, 0.0, 0.0, 0.0036]
position_covariance_type: 2
---
header: 
  seq: 4532
  stamp: 
    secs: 1512506441
    nsecs: 800497466
  frame_id: gps
status: 
  status: 0
  service: 3
latitude: 37.4786184
longitude: -122.1437023
altitude: -28.122
position_covariance: [0.0017640000000000002, 0.0, 0.0, 0.0, 0.0017640000000000002, 0.0, 0.0, 0.0, 0.0036]
position_covariance_type: 2
---
header: 
  seq: 4533
  stamp: 
    secs: 1512506442
    nsecs:    497364
  frame_id: gps
status: 
  status: 0
  service: 3
latitude: 37.4786185
longitude: -122.1437029
altitude: -28.109
position_covariance: [0.0024010000000000004, 0.0, 0.0, 0.0, 0.0024010000000000004, 0.0, 0.0, 0.0, 0.0038439999999999998]
position_covariance_type: 2
---
header: 
  seq: 4534
  stamp: 
    secs: 1512506442
    nsecs: 200497262
  frame_id: gps
status: 
  status: 0
  service: 3
latitude: 37.4786185
longitude: -122.1437036
altitude: -28.058
position_covariance: [0.0018489999999999997, 0.0, 0.0, 0.0, 0.0018489999999999997, 0.0, 0.0, 0.0, 0.0031360000000000003]
position_covariance_type: 2
---
header: 
  seq: 4535
  stamp: 
    secs: 1512506442
    nsecs: 400497160
  frame_id: gps
status: 
  status: 0
  service: 3
latitude: 37.4786187
longitude: -122.1437052
altitude: -28.027
position_covariance: [0.0019359999999999998, 0.0, 0.0, 0.0, 0.0019359999999999998, 0.0, 0.0, 0.0, 0.0029159999999999998]
position_covariance_type: 2
---
header: 
  seq: 4536
  stamp: 
    secs: 1512506442
    nsecs: 600497059
  frame_id: gps
status: 
  status: 0
  service: 3
latitude: 37.4786196
longitude: -122.1437074
altitude: -28.098
position_covariance: [0.0024010000000000004, 0.0, 0.0, 0.0, 0.0024010000000000004, 0.0, 0.0, 0.0, 0.003721]
position_covariance_type: 2
---
header: 
  seq: 4537
  stamp: 
    secs: 1512506442
    nsecs: 800496957
  frame_id: gps
status: 
  status: 0
  service: 3
latitude: 37.4786203
longitude: -122.1437099
altitude: -28.146
position_covariance: [0.003025, 0.0, 0.0, 0.0, 0.003025, 0.0, 0.0, 0.0, 0.003969]
position_covariance_type: 2
---
header: 
  seq: 4538
  stamp: 
    secs: 1512506443
    nsecs:    496855
  frame_id: gps
status: 
  status: 0
  service: 3
latitude: 37.4786208
longitude: -122.1437136
altitude: -28.216
position_covariance: [0.0031360000000000003, 0.0, 0.0, 0.0, 0.0031360000000000003, 0.0, 0.0, 0.0, 0.0050409999999999995]
position_covariance_type: 2
---
header: 
  seq: 4539
  stamp: 
    secs: 1512506443
    nsecs: 200496752
  frame_id: gps
status: 
  status: 0
  service: 3
latitude: 37.4786218
longitude: -122.1437169
altitude: -28.292
position_covariance: [0.002704, 0.0, 0.0, 0.0, 0.002704, 0.0, 0.0, 0.0, 0.005183999999999999]
position_covariance_type: 2
---
header: 
  seq: 4540
  stamp: 
    secs: 1512506443
    nsecs: 400496650
  frame_id: gps
status: 
  status: 0
  service: 3
latitude: 37.4786218
longitude: -122.1437212
altitude: -28.219
position_covariance: [0.0026009999999999996, 0.0, 0.0, 0.0, 0.0026009999999999996, 0.0, 0.0, 0.0, 0.0053289999999999995]
position_covariance_type: 2
---
header: 
  seq: 4541
  stamp: 
    secs: 1512506443
    nsecs: 600496547
  frame_id: gps
status: 
  status: 0
  service: 3
latitude: 37.4786222
longitude: -122.143726
altitude: -28.257
position_covariance: [0.002809, 0.0, 0.0, 0.0, 0.002809, 0.0, 0.0, 0.0, 0.006561]
position_covariance_type: 2
---
header: 
  seq: 4542
  stamp: 
    secs: 1512506443
    nsecs: 800496445
  frame_id: gps
status: 
  status: 0
  service: 3
latitude: 37.4786233
longitude: -122.1437315
altitude: -28.227
position_covariance: [0.003025, 0.0, 0.0, 0.0, 0.003025, 0.0, 0.0, 0.0, 0.007568999999999999]
position_covariance_type: 2
---
header: 
  seq: 4543
  stamp: 
    secs: 1512506444
    nsecs:    496342
  frame_id: gps
status: 
  status: 0
  service: 3
latitude: 37.4786235
longitude: -122.1437369
altitude: -28.187
position_covariance: [0.005929, 0.0, 0.0, 0.0, 0.005929, 0.0, 0.0, 0.0, 0.010816]
position_covariance_type: 2
---
header: 
  seq: 4544
  stamp: 
    secs: 1512506444
    nsecs: 200496240
  frame_id: gps
status: 
  status: 0
  service: 3
latitude: 37.4786239
longitude: -122.1437432
altitude: -28.19
position_covariance: [0.004096, 0.0, 0.0, 0.0, 0.004096, 0.0, 0.0, 0.0, 0.015625]
position_covariance_type: 2
---
header: 
  seq: 4545
  stamp: 
    secs: 1512506444
    nsecs: 400496137
  frame_id: gps
status: 
  status: 0
  service: 3
latitude: 37.4786241
longitude: -122.143749
altitude: -28.145
position_covariance: [0.004900000000000001, 0.0, 0.0, 0.0, 0.004900000000000001, 0.0, 0.0, 0.0, 0.023104]
position_covariance_type: 2
---
header: 
  seq: 4546
  stamp: 
    secs: 1512506444
    nsecs: 600496033
  frame_id: gps
status: 
  status: 0
  service: 3
latitude: 37.4786246
longitude: -122.1437553
altitude: -28.112
position_covariance: [0.005929, 0.0, 0.0, 0.0, 0.005929, 0.0, 0.0, 0.0, 0.033124]
position_covariance_type: 2
---
header: 
  seq: 4547
  stamp: 
    secs: 1512506444
    nsecs: 800495930
  frame_id: gps
status: 
  status: 0
  service: 3
latitude: 37.478625
longitude: -122.143762
altitude: -28.082
position_covariance: [0.006724000000000001, 0.0, 0.0, 0.0, 0.006724000000000001, 0.0, 0.0, 0.0, 0.046224999999999995]
position_covariance_type: 2
---
header: 
  seq: 4548
  stamp: 
    secs: 1512506445
    nsecs:    495827
  frame_id: gps
status: 
  status: 0
  service: 3
latitude: 37.478625
longitude: -122.1437689
altitude: -28.017
position_covariance: [0.006561, 0.0, 0.0, 0.0, 0.006561, 0.0, 0.0, 0.0, 0.058564]
position_covariance_type: 2
---
header: 
  seq: 4549
  stamp: 
    secs: 1512506445
    nsecs: 200495723
  frame_id: gps
status: 
  status: 0
  service: 3
latitude: 37.4786249
longitude: -122.1437763
altitude: -27.94
position_covariance: [0.004096, 0.0, 0.0, 0.0, 0.004096, 0.0, 0.0, 0.0, 0.030275999999999997]
position_covariance_type: 2
---
header: 
  seq: 4550
  stamp: 
    secs: 1512506445
    nsecs: 400495620
  frame_id: gps
status: 
  status: 0
  service: 3
latitude: 37.478625
longitude: -122.1437836
altitude: -27.897
position_covariance: [0.0038439999999999998, 0.0, 0.0, 0.0, 0.0038439999999999998, 0.0, 0.0, 0.0, 0.022201]
position_covariance_type: 2
---
header: 
  seq: 4551
  stamp: 
    secs: 1512506445
    nsecs: 600495518
  frame_id: gps
status: 
  status: 0
  service: 3
latitude: 37.4786252
longitude: -122.1437911
altitude: -27.921
position_covariance: [0.0033640000000000002, 0.0, 0.0, 0.0, 0.0033640000000000002, 0.0, 0.0, 0.0, 0.018496000000000002]
position_covariance_type: 2
---
header: 
  seq: 4552
  stamp: 
    secs: 1512506445
    nsecs: 800495416
  frame_id: gps
status: 
  status: 0
  service: 3
latitude: 37.4786255
longitude: -122.1437981
altitude: -27.901
position_covariance: [0.0046240000000000005, 0.0, 0.0, 0.0, 0.0046240000000000005, 0.0, 0.0, 0.0, 0.019044000000000002]
position_covariance_type: 2
---
header: 
  seq: 4553
  stamp: 
    secs: 1512506446
    nsecs:    495313
  frame_id: gps
status: 
  status: 0
  service: 3
latitude: 37.4786253
longitude: -122.1438059
altitude: -27.893
position_covariance: [0.0053289999999999995, 0.0, 0.0, 0.0, 0.0053289999999999995, 0.0, 0.0, 0.0, 0.021315999999999998]
position_covariance_type: 2
---
header: 
  seq: 4554
  stamp: 
    secs: 1512506446
    nsecs: 200495211
  frame_id: gps
status: 
  status: 0
  service: 3
latitude: 37.4786256
longitude: -122.1438135
altitude: -27.922
position_covariance: [0.005776, 0.0, 0.0, 0.0, 0.005776, 0.0, 0.0, 0.0, 0.024336]
position_covariance_type: 2
---
header: 
  seq: 4555
  stamp: 
    secs: 1512506446
    nsecs: 400495108
  frame_id: gps
status: 
  status: 0
  service: 3
latitude: 37.4786262
longitude: -122.1438214
altitude: -27.926
position_covariance: [0.007568999999999999, 0.0, 0.0, 0.0, 0.007568999999999999, 0.0, 0.0, 0.0, 0.031684]
position_covariance_type: 2
---
header: 
  seq: 4556
  stamp: 
    secs: 1512506446
    nsecs: 600495005
  frame_id: gps
status: 
  status: 0
  service: 3
latitude: 37.4786268
longitude: -122.1438293
altitude: -27.905
position_covariance: [0.007568999999999999, 0.0, 0.0, 0.0, 0.007568999999999999, 0.0, 0.0, 0.0, 0.043264]
position_covariance_type: 2
---
header: 
  seq: 4557
  stamp: 
    secs: 1512506446
    nsecs: 800494901
  frame_id: gps
status: 
  status: 0
  service: 3
latitude: 37.4786275
longitude: -122.1438378
altitude: -27.914
position_covariance: [0.007568999999999999, 0.0, 0.0, 0.0, 0.007568999999999999, 0.0, 0.0, 0.0, 0.056169]
position_covariance_type: 2
---
header: 
  seq: 4558
  stamp: 
    secs: 1512506447
    nsecs:    494799
  frame_id: gps
status: 
  status: 0
  service: 3
latitude: 37.4786284
longitude: -122.1438465
altitude: -27.898
position_covariance: [0.011448999999999999, 0.0, 0.0, 0.0, 0.011448999999999999, 0.0, 0.0, 0.0, 0.07022500000000001]
position_covariance_type: 2
---
header: 
  seq: 4559
  stamp: 
    secs: 1512506447
    nsecs: 200494697
  frame_id: gps
status: 
  status: 0
  service: 3
latitude: 37.4786286
longitude: -122.1438555
altitude: -27.869
position_covariance: [0.006241, 0.0, 0.0, 0.0, 0.006241, 0.0, 0.0, 0.0, 0.0529]
position_covariance_type: 2
---
header: 
  seq: 4560
  stamp: 
    secs: 1512506447
    nsecs: 400494595
  frame_id: gps
status: 
  status: 0
  service: 3
latitude: 37.4786303
longitude: -122.1438645
altitude: -27.798
position_covariance: [0.0064, 0.0, 0.0, 0.0, 0.0064, 0.0, 0.0, 0.0, 0.054756000000000006]
position_covariance_type: 2
---
header: 
  seq: 4561
  stamp: 
    secs: 1512506447
    nsecs: 600494494
  frame_id: gps
status: 
  status: 0
  service: 3
latitude: 37.4786314
longitude: -122.1438738
altitude: -27.817
position_covariance: [0.006084, 0.0, 0.0, 0.0, 0.006084, 0.0, 0.0, 0.0, 0.057121]
position_covariance_type: 2
---
header: 
  seq: 4562
  stamp: 
    secs: 1512506447
    nsecs: 800494392
  frame_id: gps
status: 
  status: 0
  service: 3
latitude: 37.4786326
longitude: -122.1438833
altitude: -27.789
position_covariance: [0.006724000000000001, 0.0, 0.0, 0.0, 0.006724000000000001, 0.0, 0.0, 0.0, 0.063001]
position_covariance_type: 2
---
header: 
  seq: 4563
  stamp: 
    secs: 1512506448
    nsecs:    494291
  frame_id: gps
status: 
  status: 0
  service: 3
latitude: 37.4786336
longitude: -122.1438928
altitude: -27.728
position_covariance: [0.006889000000000001, 0.0, 0.0, 0.0, 0.006889000000000001, 0.0, 0.0, 0.0, 0.06916900000000001]
position_covariance_type: 2
---
header: 
  seq: 4564
  stamp: 
    secs: 1512506448
    nsecs: 200494189
  frame_id: gps
status: 
  status: 0
  service: 3
latitude: 37.4786346
longitude: -122.1439025
altitude: -27.711
position_covariance: [0.0053289999999999995, 0.0, 0.0, 0.0, 0.0053289999999999995, 0.0, 0.0, 0.0, 0.051076]
position_covariance_type: 2
---
header: 
  seq: 4565
  stamp: 
    secs: 1512506448
    nsecs: 400494087
  frame_id: gps
status: 
  status: 0
  service: 3
latitude: 37.4786364
longitude: -122.1439119
altitude: -27.812
position_covariance: [0.004900000000000001, 0.0, 0.0, 0.0, 0.004900000000000001, 0.0, 0.0, 0.0, 0.04161599999999999]
position_covariance_type: 2
---
header: 
  seq: 4566
  stamp: 
    secs: 1512506448
    nsecs: 600493987
  frame_id: gps
status: 
  status: 0
  service: 3
latitude: 37.4786375
longitude: -122.1439214
altitude: -27.811
position_covariance: [0.006084, 0.0, 0.0, 0.0, 0.006084, 0.0, 0.0, 0.0, 0.04080400000000001]
position_covariance_type: 2
---
header: 
  seq: 4567
  stamp: 
    secs: 1512506448
    nsecs: 800493885
  frame_id: gps
status: 
  status: 0
  service: 3
latitude: 37.4786388
longitude: -122.1439311
altitude: -27.823
position_covariance: [0.008836, 0.0, 0.0, 0.0, 0.008836, 0.0, 0.0, 0.0, 0.034225]
position_covariance_type: 2
---
header: 
  seq: 4568
  stamp: 
    secs: 1512506449
    nsecs:    493782
  frame_id: gps
status: 
  status: 0
  service: 3
latitude: 37.4786397
longitude: -122.1439399
altitude: -27.84
position_covariance: [0.011881, 0.0, 0.0, 0.0, 0.011881, 0.0, 0.0, 0.0, 0.034225]
position_covariance_type: 2
---
header: 
  seq: 4569
  stamp: 
    secs: 1512506449
    nsecs: 200493680
  frame_id: gps
status: 
  status: 0
  service: 3
latitude: 37.478641
longitude: -122.1439505
altitude: -27.778
position_covariance: [0.009604000000000001, 0.0, 0.0, 0.0, 0.009604000000000001, 0.0, 0.0, 0.0, 0.019321000000000005]
position_covariance_type: 2
---
header: 
  seq: 4570
  stamp: 
    secs: 1512506449
    nsecs: 400493578
  frame_id: gps
status: 
  status: 0
  service: 3
latitude: 37.4786422
longitude: -122.14396
altitude: -27.765
position_covariance: [0.010201000000000002, 0.0, 0.0, 0.0, 0.010201000000000002, 0.0, 0.0, 0.0, 0.016384]
position_covariance_type: 2
---
header: 
  seq: 4571
  stamp: 
    secs: 1512506449
    nsecs: 600493477
  frame_id: gps
status: 
  status: 0
  service: 3
latitude: 37.4786435
longitude: -122.1439685
altitude: -27.787
position_covariance: [0.009025, 0.0, 0.0, 0.0, 0.009025, 0.0, 0.0, 0.0, 0.015129]
position_covariance_type: 2
---
header: 
  seq: 4572
  stamp: 
    secs: 1512506449
    nsecs: 800493375
  frame_id: gps
status: 
  status: 0
  service: 3
latitude: 37.478645
longitude: -122.1439781
altitude: -27.805
position_covariance: [0.009025, 0.0, 0.0, 0.0, 0.009025, 0.0, 0.0, 0.0, 0.014884]
position_covariance_type: 2
---
header: 
  seq: 4573
  stamp: 
    secs: 1512506450
    nsecs:    493273
  frame_id: gps
status: 
  status: 0
  service: 3
latitude: 37.4786465
longitude: -122.1439875
altitude: -27.868
position_covariance: [0.011236, 0.0, 0.0, 0.0, 0.011236, 0.0, 0.0, 0.0, 0.015129]
position_covariance_type: 2
---
header: 
  seq: 4574
  stamp: 
    secs: 1512506450
    nsecs: 200493172
  frame_id: gps
status: 
  status: 0
  service: 3
latitude: 37.4786477
longitude: -122.1439969
altitude: -27.867
position_covariance: [0.016384, 0.0, 0.0, 0.0, 0.016384, 0.0, 0.0, 0.0, 0.019321000000000005]
position_covariance_type: 2
---
header: 
  seq: 4575
  stamp: 
    secs: 1512506450
    nsecs: 400493070
  frame_id: gps
status: 
  status: 0
  service: 3
latitude: 37.4786479
longitude: -122.1440057
altitude: -27.798
position_covariance: [0.022801, 0.0, 0.0, 0.0, 0.022801, 0.0, 0.0, 0.0, 0.0256]
position_covariance_type: 2
---
header: 
  seq: 4576
  stamp: 
    secs: 1512506450
    nsecs: 600492968
  frame_id: gps
status: 
  status: 0
  service: 3
latitude: 37.4786489
longitude: -122.1440157
altitude: -27.718
position_covariance: [0.024649, 0.0, 0.0, 0.0, 0.024649, 0.0, 0.0, 0.0, 0.034225]
position_covariance_type: 2
---
header: 
  seq: 4577
  stamp: 
    secs: 1512506450
    nsecs: 800492865
  frame_id: gps
status: 
  status: 0
  service: 3
latitude: 37.4786503
longitude: -122.1440246
altitude: -27.603
position_covariance: [0.025281, 0.0, 0.0, 0.0, 0.025281, 0.0, 0.0, 0.0, 0.04409999999999999]
position_covariance_type: 2
---
header: 
  seq: 4578
  stamp: 
    secs: 1512506451
    nsecs:    492763
  frame_id: gps
status: 
  status: 0
  service: 3
latitude: 37.4786525
longitude: -122.1440347
altitude: -27.487
position_covariance: [0.027225000000000003, 0.0, 0.0, 0.0, 0.027225000000000003, 0.0, 0.0, 0.0, 0.054756000000000006]
position_covariance_type: 2
---
header: 
  seq: 4579
  stamp: 
    secs: 1512506451
    nsecs: 200492661
  frame_id: gps
status: 
  status: 0
  service: 3
latitude: 37.4786547
longitude: -122.1440459
altitude: -27.296
position_covariance: [0.027225000000000003, 0.0, 0.0, 0.0, 0.027225000000000003, 0.0, 0.0, 0.0, 0.064516]
position_covariance_type: 2
---
header: 
  seq: 4580
  stamp: 
    secs: 1512506451
    nsecs: 400492560
  frame_id: gps
status: 
  status: 0
  service: 3
latitude: 37.4786564
longitude: -122.1440577
altitude: -27.219
position_covariance: [0.029241000000000003, 0.0, 0.0, 0.0, 0.029241000000000003, 0.0, 0.0, 0.0, 0.07452900000000001]
position_covariance_type: 2
---
header: 
  seq: 4581
  stamp: 
    secs: 1512506451
    nsecs: 600492458
  frame_id: gps
status: 
  status: 0
  service: 3
latitude: 37.4786581
longitude: -122.1440693
altitude: -27.109
position_covariance: [0.028561000000000003, 0.0, 0.0, 0.0, 0.028561000000000003, 0.0, 0.0, 0.0, 0.08122499999999999]
position_covariance_type: 2
---
header: 
  seq: 4582
  stamp: 
    secs: 1512506451
    nsecs: 800492357
  frame_id: gps
status: 
  status: 0
  service: 3
latitude: 37.4786596
longitude: -122.1440819
altitude: -27.077
position_covariance: [0.029583999999999996, 0.0, 0.0, 0.0, 0.029583999999999996, 0.0, 0.0, 0.0, 0.08761599999999999]
position_covariance_type: 2
---
header: 
  seq: 4583
  stamp: 
    secs: 1512506452
    nsecs:    492255
  frame_id: gps
status: 
  status: 0
  service: 3
latitude: 37.4786615
longitude: -122.1440944
altitude: -27.083
position_covariance: [0.030275999999999997, 0.0, 0.0, 0.0, 0.030275999999999997, 0.0, 0.0, 0.0, 0.091809]
position_covariance_type: 2
---
header: 
  seq: 4584
  stamp: 
    secs: 1512506452
    nsecs: 200492155
  frame_id: gps
status: 
  status: 0
  service: 3
latitude: 37.4786635
longitude: -122.1441079
altitude: -27.377
position_covariance: [0.023716, 0.0, 0.0, 0.0, 0.023716, 0.0, 0.0, 0.0, 0.053361000000000006]
position_covariance_type: 2
---
header: 
  seq: 4585
  stamp: 
    secs: 1512506452
    nsecs: 400492052
  frame_id: gps
status: 
  status: 0
  service: 3
latitude: 37.4786653
longitude: -122.1441202
altitude: -27.341
position_covariance: [0.0256, 0.0, 0.0, 0.0, 0.0256, 0.0, 0.0, 0.0, 0.05664399999999999]
position_covariance_type: 2
---
header: 
  seq: 4586
  stamp: 
    secs: 1512506452
    nsecs: 600491951
  frame_id: gps
status: 
  status: 0
  service: 3
latitude: 37.478667
longitude: -122.1441325
altitude: -27.301
position_covariance: [0.031684, 0.0, 0.0, 0.0, 0.031684, 0.0, 0.0, 0.0, 0.06864400000000001]
position_covariance_type: 2
---
header: 
  seq: 4587
  stamp: 
    secs: 1512506452
    nsecs: 800491849
  frame_id: gps
status: 
  status: 0
  service: 3
latitude: 37.4786685
longitude: -122.1441452
altitude: -27.294
position_covariance: [0.034596, 0.0, 0.0, 0.0, 0.034596, 0.0, 0.0, 0.0, 0.08294399999999999]
position_covariance_type: 2
---
header: 
  seq: 4588
  stamp: 
    secs: 1512506453
    nsecs:    491748
  frame_id: gps
status: 
  status: 0
  service: 3
latitude: 37.4786704
longitude: -122.1441569
altitude: -27.325
position_covariance: [0.036864, 0.0, 0.0, 0.0, 0.036864, 0.0, 0.0, 0.0, 0.09922500000000001]
position_covariance_type: 2
---
header: 
  seq: 4589
  stamp: 
    secs: 1512506453
    nsecs: 200491647
  frame_id: gps
status: 
  status: 0
  service: 3
latitude: 37.4786719
longitude: -122.144172
altitude: -27.561
position_covariance: [0.020163999999999998, 0.0, 0.0, 0.0, 0.020163999999999998, 0.0, 0.0, 0.0, 0.064009]
position_covariance_type: 2
---
header: 
  seq: 4590
  stamp: 
    secs: 1512506453
    nsecs: 400491546
  frame_id: gps
status: 
  status: 0
  service: 3
latitude: 37.4786732
longitude: -122.1441859
altitude: -27.541
position_covariance: [0.0225, 0.0, 0.0, 0.0, 0.0225, 0.0, 0.0, 0.0, 0.07022500000000001]
position_covariance_type: 2
---
header: 
  seq: 4591
  stamp: 
    secs: 1512506453
    nsecs: 600491444
  frame_id: gps
status: 
  status: 0
  service: 3
latitude: 37.4786749
longitude: -122.1441993
altitude: -27.496
position_covariance: [0.023716, 0.0, 0.0, 0.0, 0.023716, 0.0, 0.0, 0.0, 0.07896100000000002]
position_covariance_type: 2
---
header: 
  seq: 4592
  stamp: 
    secs: 1512506453
    nsecs: 800491343
  frame_id: gps
status: 
  status: 0
  service: 3
latitude: 37.4786768
longitude: -122.1442124
altitude: -27.451
position_covariance: [0.026244, 0.0, 0.0, 0.0, 0.026244, 0.0, 0.0, 0.0, 0.088804]
position_covariance_type: 2
---
header: 
  seq: 4593
  stamp: 
    secs: 1512506454
    nsecs:    491242
  frame_id: gps
status: 
  status: 0
  service: 3
latitude: 37.4786784
longitude: -122.1442258
altitude: -27.484
position_covariance: [0.029583999999999996, 0.0, 0.0, 0.0, 0.029583999999999996, 0.0, 0.0, 0.0, 0.101761]
position_covariance_type: 2
---
header: 
  seq: 4594
  stamp: 
    secs: 1512506454
    nsecs: 200491142
  frame_id: gps
status: 
  status: 0
  service: 3
latitude: 37.4786803
longitude: -122.1442394
altitude: -27.53
position_covariance: [0.025921000000000003, 0.0, 0.0, 0.0, 0.025921000000000003, 0.0, 0.0, 0.0, 0.10890000000000001]
position_covariance_type: 2
---
header: 
  seq: 4595
  stamp: 
    secs: 1512506454
    nsecs: 400491041
  frame_id: gps
status: 
  status: 0
  service: 3
latitude: 37.4786824
longitude: -122.1442526
altitude: -27.558
position_covariance: [0.029583999999999996, 0.0, 0.0, 0.0, 0.029583999999999996, 0.0, 0.0, 0.0, 0.12531599999999998]
position_covariance_type: 2
---
header: 
  seq: 4596
  stamp: 
    secs: 1512506454
    nsecs: 600490943
  frame_id: gps
status: 
  status: 0
  service: 3
latitude: 37.4786843
longitude: -122.1442654
altitude: -27.652
position_covariance: [0.029241000000000003, 0.0, 0.0, 0.0, 0.029241000000000003, 0.0, 0.0, 0.0, 0.145924]
position_covariance_type: 2
---
header: 
  seq: 4597
  stamp: 
    secs: 1512506454
    nsecs: 800490843
  frame_id: gps
status: 
  status: 0
  service: 3
latitude: 37.478686
longitude: -122.1442789
altitude: -27.788
position_covariance: [0.030975999999999997, 0.0, 0.0, 0.0, 0.030975999999999997, 0.0, 0.0, 0.0, 0.165649]
position_covariance_type: 2
---
header: 
  seq: 4598
  stamp: 
    secs: 1512506455
    nsecs:    490742
  frame_id: gps
status: 
  status: 0
  service: 3
latitude: 37.4786879
longitude: -122.1442917
altitude: -27.902
position_covariance: [0.0324, 0.0, 0.0, 0.0, 0.0324, 0.0, 0.0, 0.0, 0.192721]
position_covariance_type: 2
---
header: 
  seq: 4599
  stamp: 
    secs: 1512506455
    nsecs: 200490641
  frame_id: gps
status: 
  status: 0
  service: 3
latitude: 37.4786901
longitude: -122.1443043
altitude: -27.867
position_covariance: [0.031684, 0.0, 0.0, 0.0, 0.031684, 0.0, 0.0, 0.0, 0.210681]
position_covariance_type: 2
---
header: 
  seq: 4600
  stamp: 
    secs: 1512506455
    nsecs: 400490540
  frame_id: gps
status: 
  status: 0
  service: 3
latitude: 37.4786922
longitude: -122.1443163
altitude: -27.822
position_covariance: [0.034969, 0.0, 0.0, 0.0, 0.034969, 0.0, 0.0, 0.0, 0.23232399999999997]
position_covariance_type: 2
---
header: 
  seq: 4601
  stamp: 
    secs: 1512506455
    nsecs: 600490438
  frame_id: gps
status: 
  status: 0
  service: 3
latitude: 37.4786926
longitude: -122.1443288
altitude: -27.322
position_covariance: [0.038025, 0.0, 0.0, 0.0, 0.038025, 0.0, 0.0, 0.0, 0.248004]
position_covariance_type: 2
---
header: 
  seq: 4602
  stamp: 
    secs: 1512506455
    nsecs: 800490337
  frame_id: gps
status: 
  status: 0
  service: 3
latitude: 37.4786931
longitude: -122.1443414
altitude: -27.32
position_covariance: [0.039601000000000004, 0.0, 0.0, 0.0, 0.039601000000000004, 0.0, 0.0, 0.0, 0.264196]
position_covariance_type: 2
---
header: 
  seq: 4603
  stamp: 
    secs: 1512506456
    nsecs:    490235
  frame_id: gps
status: 
  status: 0
  service: 3
latitude: 37.4786956
longitude: -122.1443534
altitude: -27.402
position_covariance: [0.039601000000000004, 0.0, 0.0, 0.0, 0.039601000000000004, 0.0, 0.0, 0.0, 0.273529]
position_covariance_type: 2
---
header: 
  seq: 4604
  stamp: 
    secs: 1512506456
    nsecs: 200490133
  frame_id: gps
status: 
  status: 0
  service: 3
latitude: 37.478698
longitude: -122.1443665
altitude: -27.221
position_covariance: [0.04202499999999999, 0.0, 0.0, 0.0, 0.04202499999999999, 0.0, 0.0, 0.0, 0.27040000000000003]
position_covariance_type: 2
---
header: 
  seq: 4605
  stamp: 
    secs: 1512506456
    nsecs: 400490032
  frame_id: gps
status: 
  status: 0
  service: 3
latitude: 37.4787008
longitude: -122.1443801
altitude: -27.331
position_covariance: [0.048841, 0.0, 0.0, 0.0, 0.048841, 0.0, 0.0, 0.0, 0.268324]
position_covariance_type: 2
---
header: 
  seq: 4606
  stamp: 
    secs: 1512506456
    nsecs: 600489930
  frame_id: gps
status: 
  status: 0
  service: 3
latitude: 37.4787028
longitude: -122.1443933
altitude: -27.324
position_covariance: [0.049284, 0.0, 0.0, 0.0, 0.049284, 0.0, 0.0, 0.0, 0.281961]
position_covariance_type: 2
---
header: 
  seq: 4607
  stamp: 
    secs: 1512506456
    nsecs: 800489829
  frame_id: gps
status: 
  status: 0
  service: 3
latitude: 37.478705
longitude: -122.1444061
altitude: -27.396
position_covariance: [0.052441, 0.0, 0.0, 0.0, 0.052441, 0.0, 0.0, 0.0, 0.30580900000000005]
position_covariance_type: 2
---
header: 
  seq: 4608
  stamp: 
    secs: 1512506457
    nsecs:    489729
  frame_id: gps
status: 
  status: 0
  service: 3
latitude: 37.478707
longitude: -122.1444199
altitude: -27.513
position_covariance: [0.05664399999999999, 0.0, 0.0, 0.0, 0.05664399999999999, 0.0, 0.0, 0.0, 0.33062499999999995]
position_covariance_type: 2
---
header: 
  seq: 4609
  stamp: 
    secs: 1512506457
    nsecs: 200489629
  frame_id: gps
status: 
  status: 0
  service: 3
latitude: 37.4787106
longitude: -122.1444333
altitude: -27.988
position_covariance: [0.056169, 0.0, 0.0, 0.0, 0.056169, 0.0, 0.0, 0.0, 0.264196]
position_covariance_type: 2
---
header: 
  seq: 4610
  stamp: 
    secs: 1512506457
    nsecs: 400489529
  frame_id: gps
status: 
  status: 0
  service: 3
latitude: 37.4787127
longitude: -122.1444483
altitude: -28.125
position_covariance: [0.061009, 0.0, 0.0, 0.0, 0.061009, 0.0, 0.0, 0.0, 0.237169]
position_covariance_type: 2
---
header: 
  seq: 4611
  stamp: 
    secs: 1512506457
    nsecs: 600489427
  frame_id: gps
status: 
  status: 0
  service: 3
latitude: 37.4787155
longitude: -122.1444627
altitude: -28.04
position_covariance: [0.066564, 0.0, 0.0, 0.0, 0.066564, 0.0, 0.0, 0.0, 0.22657599999999997]
position_covariance_type: 2
---
header: 
  seq: 4612
  stamp: 
    secs: 1512506457
    nsecs: 800489326
  frame_id: gps
status: 
  status: 0
  service: 3
latitude: 37.478718
longitude: -122.1444784
altitude: -27.906
position_covariance: [0.07022500000000001, 0.0, 0.0, 0.0, 0.07022500000000001, 0.0, 0.0, 0.0, 0.22089999999999999]
position_covariance_type: 2
---
header: 
  seq: 4613
  stamp: 
    secs: 1512506458
    nsecs:    489224
  frame_id: gps
status: 
  status: 0
  service: 3
latitude: 37.4787193
longitude: -122.1444939
altitude: -27.777
position_covariance: [0.07236100000000001, 0.0, 0.0, 0.0, 0.07236100000000001, 0.0, 0.0, 0.0, 0.22089999999999999]
position_covariance_type: 2
---
header: 
  seq: 4614
  stamp: 
    secs: 1512506458
    nsecs: 200489122
  frame_id: gps
status: 
  status: 0
  service: 3
latitude: 37.4787227
longitude: -122.1445082
altitude: -27.605
position_covariance: [0.059536, 0.0, 0.0, 0.0, 0.059536, 0.0, 0.0, 0.0, 0.20702500000000001]
position_covariance_type: 2
---
header: 
  seq: 4615
  stamp: 
    secs: 1512506458
    nsecs: 400489020
  frame_id: gps
status: 
  status: 0
  service: 3
latitude: 37.478725
longitude: -122.1445222
altitude: -27.464
position_covariance: [0.055224999999999996, 0.0, 0.0, 0.0, 0.055224999999999996, 0.0, 0.0, 0.0, 0.208849]
position_covariance_type: 2
---
header: 
  seq: 4616
  stamp: 
    secs: 1512506458
    nsecs: 600488919
  frame_id: gps
status: 
  status: 0
  service: 3
latitude: 37.4787272
longitude: -122.1445367
altitude: -27.423
position_covariance: [0.053361000000000006, 0.0, 0.0, 0.0, 0.053361000000000006, 0.0, 0.0, 0.0, 0.21529600000000002]
position_covariance_type: 2
---
header: 
  seq: 4617
  stamp: 
    secs: 1512506458
    nsecs: 800488817
  frame_id: gps
status: 
  status: 0
  service: 3
latitude: 37.4787293
longitude: -122.1445513
altitude: -27.387
position_covariance: [0.054289000000000004, 0.0, 0.0, 0.0, 0.054289000000000004, 0.0, 0.0, 0.0, 0.22944099999999998]
position_covariance_type: 2
---
header: 
  seq: 4618
  stamp: 
    secs: 1512506459
    nsecs:    488716
  frame_id: gps
status: 
  status: 0
  service: 3
latitude: 37.4787314
longitude: -122.1445658
altitude: -27.422
position_covariance: [0.052441, 0.0, 0.0, 0.0, 0.052441, 0.0, 0.0, 0.0, 0.243049]
position_covariance_type: 2
---
header: 
  seq: 4619
  stamp: 
    secs: 1512506459
    nsecs: 200488615
  frame_id: gps
status: 
  status: 0
  service: 3
latitude: 37.4787338
longitude: -122.1445815
altitude: -27.353
position_covariance: [0.045795999999999996, 0.0, 0.0, 0.0, 0.045795999999999996, 0.0, 0.0, 0.0, 0.225625]
position_covariance_type: 2
---
header: 
  seq: 4620
  stamp: 
    secs: 1512506459
    nsecs: 400488514
  frame_id: gps
status: 
  status: 0
  service: 3
latitude: 37.4787363
longitude: -122.1445967
altitude: -27.326
position_covariance: [0.046655999999999996, 0.0, 0.0, 0.0, 0.046655999999999996, 0.0, 0.0, 0.0, 0.21344400000000002]
position_covariance_type: 2
---
header: 
  seq: 4621
  stamp: 
    secs: 1512506459
    nsecs: 600488413
  frame_id: gps
status: 
  status: 0
  service: 3
latitude: 37.4787387
longitude: -122.1446107
altitude: -27.269
position_covariance: [0.050176000000000005, 0.0, 0.0, 0.0, 0.050176000000000005, 0.0, 0.0, 0.0, 0.21436900000000003]
position_covariance_type: 2
---
header: 
  seq: 4622
  stamp: 
    secs: 1512506459
    nsecs: 800488312
  frame_id: gps
status: 
  status: 0
  service: 3
latitude: 37.4787411
longitude: -122.1446252
altitude: -27.252
position_covariance: [0.054289000000000004, 0.0, 0.0, 0.0, 0.054289000000000004, 0.0, 0.0, 0.0, 0.21715600000000002]
position_covariance_type: 2
---
header: 
  seq: 4623
  stamp: 
    secs: 1512506460
    nsecs:    488211
  frame_id: gps
status: 
  status: 0
  service: 3
latitude: 37.4787432
longitude: -122.1446385
altitude: -27.316
position_covariance: [0.053824000000000004, 0.0, 0.0, 0.0, 0.053824000000000004, 0.0, 0.0, 0.0, 0.21902400000000002]
position_covariance_type: 2
---
header: 
  seq: 4624
  stamp: 
    secs: 1512506460
    nsecs: 200488111
  frame_id: gps
status: 
  status: 0
  service: 3
latitude: 37.4787464
longitude: -122.144654
altitude: -27.478
position_covariance: [0.053361000000000006, 0.0, 0.0, 0.0, 0.053361000000000006, 0.0, 0.0, 0.0, 0.235225]
position_covariance_type: 2
---
header: 
  seq: 4625
  stamp: 
    secs: 1512506460
    nsecs: 400488012
  frame_id: gps
status: 
  status: 0
  service: 3
latitude: 37.4787493
longitude: -122.1446691
altitude: -27.636
position_covariance: [0.0529, 0.0, 0.0, 0.0, 0.0529, 0.0, 0.0, 0.0, 0.252004]
position_covariance_type: 2
---
header: 
  seq: 4626
  stamp: 
    secs: 1512506460
    nsecs: 600487916
  frame_id: gps
status: 
  status: 0
  service: 3
latitude: 37.478753
longitude: -122.1446834
altitude: -27.931
position_covariance: [0.056169, 0.0, 0.0, 0.0, 0.056169, 0.0, 0.0, 0.0, 0.267289]
position_covariance_type: 2
---
header: 
  seq: 4627
  stamp: 
    secs: 1512506460
    nsecs: 800487818
  frame_id: gps
status: 
  status: 0
  service: 3
latitude: 37.4787594
longitude: -122.144697
altitude: -28.252
position_covariance: [0.073441, 0.0, 0.0, 0.0, 0.073441, 0.0, 0.0, 0.0, 0.286225]
position_covariance_type: 2
---
header: 
  seq: 4628
  stamp: 
    secs: 1512506461
    nsecs:    487718
  frame_id: gps
status: 
  status: 0
  service: 3
latitude: 37.478763
longitude: -122.1447101
altitude: -28.487
position_covariance: [0.08294399999999999, 0.0, 0.0, 0.0, 0.08294399999999999, 0.0, 0.0, 0.0, 0.30802500000000005]
position_covariance_type: 2
---
header: 
  seq: 4629
  stamp: 
    secs: 1512506461
    nsecs: 200487618
  frame_id: gps
status: 
  status: 0
  service: 3
latitude: 37.4787638
longitude: -122.1447246
altitude: -28.468
position_covariance: [0.08761599999999999, 0.0, 0.0, 0.0, 0.08761599999999999, 0.0, 0.0, 0.0, 0.228484]
position_covariance_type: 2
---
header: 
  seq: 4630
  stamp: 
    secs: 1512506461
    nsecs: 400487518
  frame_id: gps
status: 
  status: 0
  service: 3
latitude: 37.4787635
longitude: -122.1447385
altitude: -28.306
position_covariance: [0.08179599999999998, 0.0, 0.0, 0.0, 0.08179599999999998, 0.0, 0.0, 0.0, 0.191844]
position_covariance_type: 2
---
header: 
  seq: 4631
  stamp: 
    secs: 1512506461
    nsecs: 600487416
  frame_id: gps
status: 
  status: 0
  service: 3
latitude: 37.4787621
longitude: -122.1447507
altitude: -28.254
position_covariance: [0.08065599999999999, 0.0, 0.0, 0.0, 0.08065599999999999, 0.0, 0.0, 0.0, 0.171396]
position_covariance_type: 2
---
header: 
  seq: 4632
  stamp: 
    secs: 1512506461
    nsecs: 800487318
  frame_id: gps
status: 
  status: 0
  service: 3
latitude: 37.4787648
longitude: -122.1447666
altitude: -28.557
position_covariance: [0.08008899999999998, 0.0, 0.0, 0.0, 0.08008899999999998, 0.0, 0.0, 0.0, 0.18576099999999998]
position_covariance_type: 2
---
header: 
  seq: 4633
  stamp: 
    secs: 1512506462
    nsecs:    487219
  frame_id: gps
status: 
  status: 0
  service: 3
latitude: 37.4787684
longitude: -122.1447815
altitude: -28.719
position_covariance: [0.09, 0.0, 0.0, 0.0, 0.09, 0.0, 0.0, 0.0, 0.20702500000000001]
position_covariance_type: 2
---
header: 
  seq: 4634
  stamp: 
    secs: 1512506462
    nsecs: 200487120
  frame_id: gps
status: 
  status: 0
  service: 3
latitude: 37.47877
longitude: -122.1447957
altitude: -28.685
position_covariance: [0.07022500000000001, 0.0, 0.0, 0.0, 0.07022500000000001, 0.0, 0.0, 0.0, 0.20070400000000002]
position_covariance_type: 2
---
header: 
  seq: 4635
  stamp: 
    secs: 1512506462
    nsecs: 400487020
  frame_id: gps
status: 
  status: 0
  service: 3
latitude: 37.4787721
longitude: -122.1448094
altitude: -28.623
position_covariance: [0.0625, 0.0, 0.0, 0.0, 0.0625, 0.0, 0.0, 0.0, 0.20611600000000002]
position_covariance_type: 2
---
header: 
  seq: 4636
  stamp: 
    secs: 1512506462
    nsecs: 600486920
  frame_id: gps
status: 
  status: 0
  service: 3
latitude: 37.478774
longitude: -122.1448257
altitude: -28.561
position_covariance: [0.057121, 0.0, 0.0, 0.0, 0.057121, 0.0, 0.0, 0.0, 0.21436900000000003]
position_covariance_type: 2
---
header: 
  seq: 4637
  stamp: 
    secs: 1512506462
    nsecs: 800486823
  frame_id: gps
status: 
  status: 0
  service: 3
latitude: 37.4787765
longitude: -122.1448403
altitude: -28.703
position_covariance: [0.057121, 0.0, 0.0, 0.0, 0.057121, 0.0, 0.0, 0.0, 0.22657599999999997]
position_covariance_type: 2
---
header: 
  seq: 4638
  stamp: 
    secs: 1512506463
    nsecs:    486725
  frame_id: gps
status: 
  status: 0
  service: 3
latitude: 37.4787788
longitude: -122.144854
altitude: -28.775
position_covariance: [0.058080999999999994, 0.0, 0.0, 0.0, 0.058080999999999994, 0.0, 0.0, 0.0, 0.252004]
position_covariance_type: 2
---
header: 
  seq: 4639
  stamp: 
    secs: 1512506463
    nsecs: 200486627
  frame_id: gps
status: 
  status: 0
  service: 3
latitude: 37.4787808
longitude: -122.14487
altitude: -28.806
position_covariance: [0.056169, 0.0, 0.0, 0.0, 0.056169, 0.0, 0.0, 0.0, 0.262144]
position_covariance_type: 2
---
header: 
  seq: 4640
  stamp: 
    secs: 1512506463
    nsecs: 400486531
  frame_id: gps
status: 
  status: 0
  service: 3
latitude: 37.4787812
longitude: -122.1448846
altitude: -28.681
position_covariance: [0.06760000000000001, 0.0, 0.0, 0.0, 0.06760000000000001, 0.0, 0.0, 0.0, 0.27457600000000004]
position_covariance_type: 2
---
header: 
  seq: 4641
  stamp: 
    secs: 1512506463
    nsecs: 600486433
  frame_id: gps
status: 
  status: 0
  service: 3
latitude: 37.4787828
longitude: -122.1448985
altitude: -28.761
position_covariance: [0.09060099999999999, 0.0, 0.0, 0.0, 0.09060099999999999, 0.0, 0.0, 0.0, 0.30140100000000003]
position_covariance_type: 2
---
header: 
  seq: 4642
  stamp: 
    secs: 1512506463
    nsecs: 800486334
  frame_id: gps
status: 
  status: 0
  service: 3
latitude: 37.4787837
longitude: -122.1449097
altitude: -28.3
position_covariance: [0.08122499999999999, 0.0, 0.0, 0.0, 0.08122499999999999, 0.0, 0.0, 0.0, 0.3192249999999999]
position_covariance_type: 2
---
header: 
  seq: 4643
  stamp: 
    secs: 1512506464
    nsecs:    486237
  frame_id: gps
status: 
  status: 0
  service: 3
latitude: 37.4787855
longitude: -122.1449238
altitude: -28.333
position_covariance: [0.08065599999999999, 0.0, 0.0, 0.0, 0.08065599999999999, 0.0, 0.0, 0.0, 0.33408399999999994]
position_covariance_type: 2
---
header: 
  seq: 4644
  stamp: 
    secs: 1512506464
    nsecs: 200486140
  frame_id: gps
status: 
  status: 0
  service: 3
latitude: 37.4787878
longitude: -122.1449397
altitude: -28.551
position_covariance: [0.07398400000000001, 0.0, 0.0, 0.0, 0.07398400000000001, 0.0, 0.0, 0.0, 0.3192249999999999]
position_covariance_type: 2
---
header: 
  seq: 4645
  stamp: 
    secs: 1512506464
    nsecs: 400486043
  frame_id: gps
status: 
  status: 0
  service: 3
latitude: 37.4787901
longitude: -122.1449551
altitude: -28.702
position_covariance: [0.0729, 0.0, 0.0, 0.0, 0.0729, 0.0, 0.0, 0.0, 0.31809599999999993]
position_covariance_type: 2
---
header: 
  seq: 4646
  stamp: 
    secs: 1512506464
    nsecs: 600485945
  frame_id: gps
status: 
  status: 0
  service: 3
latitude: 37.4787927
longitude: -122.144969
altitude: -28.83
position_covariance: [0.06760000000000001, 0.0, 0.0, 0.0, 0.06760000000000001, 0.0, 0.0, 0.0, 0.3203559999999999]
position_covariance_type: 2
---
header: 
  seq: 4647
  stamp: 
    secs: 1512506464
    nsecs: 800485847
  frame_id: gps
status: 
  status: 0
  service: 3
latitude: 37.4787948
longitude: -122.1449828
altitude: -28.993
position_covariance: [0.065025, 0.0, 0.0, 0.0, 0.065025, 0.0, 0.0, 0.0, 0.32604099999999997]
position_covariance_type: 2
---
header: 
  seq: 4648
  stamp: 
    secs: 1512506465
    nsecs:    485751
  frame_id: gps
status: 
  status: 0
  service: 3
latitude: 37.4787967
longitude: -122.1449965
altitude: -29.076
position_covariance: [0.065025, 0.0, 0.0, 0.0, 0.065025, 0.0, 0.0, 0.0, 0.33524099999999996]
position_covariance_type: 2
---
header: 
  seq: 4649
  stamp: 
    secs: 1512506465
    nsecs: 200485653
  frame_id: gps
status: 
  status: 0
  service: 3
latitude: 37.4787987
longitude: -122.145011
altitude: -28.914
position_covariance: [0.055695999999999996, 0.0, 0.0, 0.0, 0.055695999999999996, 0.0, 0.0, 0.0, 0.236196]
position_covariance_type: 2
---
header: 
  seq: 4650
  stamp: 
    secs: 1512506465
    nsecs: 400485556
  frame_id: gps
status: 
  status: 0
  service: 3
latitude: 37.4788006
longitude: -122.1450252
altitude: -28.829
position_covariance: [0.059049, 0.0, 0.0, 0.0, 0.059049, 0.0, 0.0, 0.0, 0.190096]
position_covariance_type: 2
---
header: 
  seq: 4651
  stamp: 
    secs: 1512506465
    nsecs: 600485462
  frame_id: gps
status: 
  status: 0
  service: 3
latitude: 37.4788022
longitude: -122.1450385
altitude: -28.791
position_covariance: [0.060024999999999995, 0.0, 0.0, 0.0, 0.060024999999999995, 0.0, 0.0, 0.0, 0.16402500000000003]
position_covariance_type: 2
---
header: 
  seq: 4652
  stamp: 
    secs: 1512506465
    nsecs: 800485366
  frame_id: gps
status: 
  status: 0
  service: 3
latitude: 37.4788037
longitude: -122.1450518
altitude: -28.752
position_covariance: [0.058080999999999994, 0.0, 0.0, 0.0, 0.058080999999999994, 0.0, 0.0, 0.0, 0.146689]
position_covariance_type: 2
---
header: 
  seq: 4653
  stamp: 
    secs: 1512506466
    nsecs:    485269
  frame_id: gps
status: 
  status: 0
  service: 3
latitude: 37.4788059
longitude: -122.1450634
altitude: -28.691
position_covariance: [0.064516, 0.0, 0.0, 0.0, 0.064516, 0.0, 0.0, 0.0, 0.141376]
position_covariance_type: 2
---
header: 
  seq: 4654
  stamp: 
    secs: 1512506466
    nsecs: 200485173
  frame_id: gps
status: 
  status: 0
  service: 3
latitude: 37.4788071
longitude: -122.1450757
altitude: -28.645
position_covariance: [0.0484, 0.0, 0.0, 0.0, 0.0484, 0.0, 0.0, 0.0, 0.1369]
position_covariance_type: 2
---
header: 
  seq: 4655
  stamp: 
    secs: 1512506466
    nsecs: 400485077
  frame_id: gps
status: 
  status: 0
  service: 3
latitude: 37.4788085
longitude: -122.1450884
altitude: -28.631
position_covariance: [0.044521, 0.0, 0.0, 0.0, 0.044521, 0.0, 0.0, 0.0, 0.136161]
position_covariance_type: 2
---
header: 
  seq: 4656
  stamp: 
    secs: 1512506466
    nsecs: 600484982
  frame_id: gps
status: 
  status: 0
  service: 3
latitude: 37.478811
longitude: -122.1451
altitude: -28.559
position_covariance: [0.040401000000000006, 0.0, 0.0, 0.0, 0.040401000000000006, 0.0, 0.0, 0.0, 0.133956]
position_covariance_type: 2
---
header: 
  seq: 4657
  stamp: 
    secs: 1512506466
    nsecs: 800484885
  frame_id: gps
status: 
  status: 0
  service: 3
latitude: 37.4788133
longitude: -122.1451119
altitude: -28.64
position_covariance: [0.046224999999999995, 0.0, 0.0, 0.0, 0.046224999999999995, 0.0, 0.0, 0.0, 0.12249999999999998]
position_covariance_type: 2
---
header: 
  seq: 4658
  stamp: 
    secs: 1512506467
    nsecs:    484790
  frame_id: gps
status: 
  status: 0
  service: 3
latitude: 37.4788161
longitude: -122.1451237
altitude: -28.767
position_covariance: [0.049284, 0.0, 0.0, 0.0, 0.049284, 0.0, 0.0, 0.0, 0.11628100000000002]
position_covariance_type: 2
---
header: 
  seq: 4659
  stamp: 
    secs: 1512506467
    nsecs: 200484694
  frame_id: gps
status: 
  status: 0
  service: 3
latitude: 37.4788195
longitude: -122.1451347
altitude: -28.84
position_covariance: [0.048841, 0.0, 0.0, 0.0, 0.048841, 0.0, 0.0, 0.0, 0.091204]
position_covariance_type: 2
---
header: 
  seq: 4660
  stamp: 
    secs: 1512506467
    nsecs: 400484599
  frame_id: gps
status: 
  status: 0
  service: 3
latitude: 37.4788232
longitude: -122.1451458
altitude: -28.866
position_covariance: [0.051529000000000005, 0.0, 0.0, 0.0, 0.051529000000000005, 0.0, 0.0, 0.0, 0.07784100000000002]
position_covariance_type: 2
---
header: 
  seq: 4661
  stamp: 
    secs: 1512506467
    nsecs: 600484503
  frame_id: gps
status: 
  status: 0
  service: 3
latitude: 37.4788265
longitude: -122.1451561
altitude: -28.847
position_covariance: [0.048841, 0.0, 0.0, 0.0, 0.048841, 0.0, 0.0, 0.0, 0.07022500000000001]
position_covariance_type: 2
---
header: 
  seq: 4662
  stamp: 
    secs: 1512506467
    nsecs: 800484407
  frame_id: gps
status: 
  status: 0
  service: 3
latitude: 37.4788306
longitude: -122.1451658
altitude: -28.868
position_covariance: [0.045795999999999996, 0.0, 0.0, 0.0, 0.045795999999999996, 0.0, 0.0, 0.0, 0.064009]
position_covariance_type: 2
---
header: 
  seq: 4663
  stamp: 
    secs: 1512506468
    nsecs:    484311
  frame_id: gps
status: 
  status: 0
  service: 3
latitude: 37.4788347
longitude: -122.1451751
altitude: -28.916
position_covariance: [0.042849, 0.0, 0.0, 0.0, 0.042849, 0.0, 0.0, 0.0, 0.060516]
position_covariance_type: 2
---
header: 
  seq: 4664
  stamp: 
    secs: 1512506468
    nsecs: 200484216
  frame_id: gps
status: 
  status: 0
  service: 3
latitude: 37.4788386
longitude: -122.1451839
altitude: -28.913
position_covariance: [0.046224999999999995, 0.0, 0.0, 0.0, 0.046224999999999995, 0.0, 0.0, 0.0, 0.060516]
position_covariance_type: 2
---
header: 
  seq: 4665
  stamp: 
    secs: 1512506468
    nsecs: 400484121
  frame_id: gps
status: 
  status: 0
  service: 3
latitude: 37.4788423
longitude: -122.145193
altitude: -28.93
position_covariance: [0.044521, 0.0, 0.0, 0.0, 0.044521, 0.0, 0.0, 0.0, 0.061009]
position_covariance_type: 2
---
header: 
  seq: 4666
  stamp: 
    secs: 1512506468
    nsecs: 600484024
  frame_id: gps
status: 
  status: 0
  service: 3
latitude: 37.4788463
longitude: -122.1452014
altitude: -28.958
position_covariance: [0.04202499999999999, 0.0, 0.0, 0.0, 0.04202499999999999, 0.0, 0.0, 0.0, 0.062001]
position_covariance_type: 2
---
header: 
  seq: 4667
  stamp: 
    secs: 1512506468
    nsecs: 800483930
  frame_id: gps
status: 
  status: 0
  service: 3
latitude: 37.4788508
longitude: -122.1452102
altitude: -28.974
position_covariance: [0.043264, 0.0, 0.0, 0.0, 0.043264, 0.0, 0.0, 0.0, 0.065025]
position_covariance_type: 2
---
header: 
  seq: 4668
  stamp: 
    secs: 1512506469
    nsecs:    483835
  frame_id: gps
status: 
  status: 0
  service: 3
latitude: 37.4788549
longitude: -122.1452194
altitude: -28.998
position_covariance: [0.04080400000000001, 0.0, 0.0, 0.0, 0.04080400000000001, 0.0, 0.0, 0.0, 0.066564]
position_covariance_type: 2
---
header: 
  seq: 4669
  stamp: 
    secs: 1512506469
    nsecs: 200483740
  frame_id: gps
status: 
  status: 0
  service: 3
latitude: 37.4788587
longitude: -122.1452282
altitude: -28.988
position_covariance: [0.043681, 0.0, 0.0, 0.0, 0.043681, 0.0, 0.0, 0.0, 0.063504]
position_covariance_type: 2
---
header: 
  seq: 4670
  stamp: 
    secs: 1512506469
    nsecs: 400483646
  frame_id: gps
status: 
  status: 0
  service: 3
latitude: 37.478862
longitude: -122.1452366
altitude: -29.004
position_covariance: [0.050176000000000005, 0.0, 0.0, 0.0, 0.050176000000000005, 0.0, 0.0, 0.0, 0.064009]
position_covariance_type: 2
---
header: 
  seq: 4671
  stamp: 
    secs: 1512506469
    nsecs: 600483553
  frame_id: gps
status: 
  status: 0
  service: 3
latitude: 37.4788641
longitude: -122.1452438
altitude: -29.052
position_covariance: [0.05664399999999999, 0.0, 0.0, 0.0, 0.05664399999999999, 0.0, 0.0, 0.0, 0.07182400000000001]
position_covariance_type: 2
---
header: 
  seq: 4672
  stamp: 
    secs: 1512506469
    nsecs: 800483459
  frame_id: gps
status: 
  status: 0
  service: 3
latitude: 37.4788665
longitude: -122.1452523
altitude: -29.078
position_covariance: [0.055224999999999996, 0.0, 0.0, 0.0, 0.055224999999999996, 0.0, 0.0, 0.0, 0.08065599999999999]
position_covariance_type: 2
---
header: 
  seq: 4673
  stamp: 
    secs: 1512506470
    nsecs:    483365
  frame_id: gps
status: 
  status: 0
  service: 3
latitude: 37.4788688
longitude: -122.1452603
altitude: -29.156
position_covariance: [0.054289000000000004, 0.0, 0.0, 0.0, 0.054289000000000004, 0.0, 0.0, 0.0, 0.089401]
position_covariance_type: 2
---
header: 
  seq: 4674
  stamp: 
    secs: 1512506470
    nsecs: 200483271
  frame_id: gps
status: 
  status: 0
  service: 3
latitude: 37.4788708
longitude: -122.1452691
altitude: -29.132
position_covariance: [0.051076, 0.0, 0.0, 0.0, 0.051076, 0.0, 0.0, 0.0, 0.07952399999999998]
position_covariance_type: 2
---
header: 
  seq: 4675
  stamp: 
    secs: 1512506470
    nsecs: 400483176
  frame_id: gps
status: 
  status: 0
  service: 3
latitude: 37.478872
longitude: -122.1452777
altitude: -29.157
position_covariance: [0.052441, 0.0, 0.0, 0.0, 0.052441, 0.0, 0.0, 0.0, 0.08179599999999998]
position_covariance_type: 2
---
header: 
  seq: 4676
  stamp: 
    secs: 1512506470
    nsecs: 600483083
  frame_id: gps
status: 
  status: 0
  service: 3
latitude: 37.4788729
longitude: -122.1452851
altitude: -29.206
position_covariance: [0.056169, 0.0, 0.0, 0.0, 0.056169, 0.0, 0.0, 0.0, 0.0841]
position_covariance_type: 2
---
header: 
  seq: 4677
  stamp: 
    secs: 1512506470
    nsecs: 800482989
  frame_id: gps
status: 
  status: 0
  service: 3
latitude: 37.4788732
longitude: -122.1452936
altitude: -29.231
position_covariance: [0.055695999999999996, 0.0, 0.0, 0.0, 0.055695999999999996, 0.0, 0.0, 0.0, 0.088209]
position_covariance_type: 2
---
header: 
  seq: 4678
  stamp: 
    secs: 1512506471
    nsecs:    482895
  frame_id: gps
status: 
  status: 0
  service: 3
latitude: 37.478873
longitude: -122.1453015
altitude: -29.249
position_covariance: [0.060516, 0.0, 0.0, 0.0, 0.060516, 0.0, 0.0, 0.0, 0.093025]
position_covariance_type: 2
---
header: 
  seq: 4679
  stamp: 
    secs: 1512506471
    nsecs: 200482801
  frame_id: gps
status: 
  status: 0
  service: 3
latitude: 37.4788721
longitude: -122.1453096
altitude: -29.146
position_covariance: [0.0576, 0.0, 0.0, 0.0, 0.0576, 0.0, 0.0, 0.0, 0.07562500000000001]
position_covariance_type: 2
---
header: 
  seq: 4680
  stamp: 
    secs: 1512506471
    nsecs: 400482706
  frame_id: gps
status: 
  status: 0
  service: 3
latitude: 37.4788718
longitude: -122.1453182
altitude: -29.062
position_covariance: [0.060024999999999995, 0.0, 0.0, 0.0, 0.060024999999999995, 0.0, 0.0, 0.0, 0.066564]
position_covariance_type: 2
---
header: 
  seq: 4681
  stamp: 
    secs: 1512506471
    nsecs: 600482612
  frame_id: gps
status: 
  status: 0
  service: 3
latitude: 37.4788704
longitude: -122.145326
altitude: -29.028
position_covariance: [0.0625, 0.0, 0.0, 0.0, 0.0625, 0.0, 0.0, 0.0, 0.06864400000000001]
position_covariance_type: 2
---
header: 
  seq: 4682
  stamp: 
    secs: 1512506471
    nsecs: 800482519
  frame_id: gps
status: 
  status: 0
  service: 3
latitude: 37.4788679
longitude: -122.1453329
altitude: -29.051
position_covariance: [0.060024999999999995, 0.0, 0.0, 0.0, 0.060024999999999995, 0.0, 0.0, 0.0, 0.07022500000000001]
position_covariance_type: 2
---
header: 
  seq: 4683
  stamp: 
    secs: 1512506472
    nsecs:    482425
  frame_id: gps
status: 
  status: 0
  service: 3
latitude: 37.4788653
longitude: -122.145339
altitude: -29.069
position_covariance: [0.055695999999999996, 0.0, 0.0, 0.0, 0.055695999999999996, 0.0, 0.0, 0.0, 0.07452900000000001]
position_covariance_type: 2
---
header: 
  seq: 4684
  stamp: 
    secs: 1512506472
    nsecs: 200482331
  frame_id: gps
status: 
  status: 0
  service: 3
latitude: 37.4788626
longitude: -122.1453445
altitude: -29.083
position_covariance: [0.054756000000000006, 0.0, 0.0, 0.0, 0.054756000000000006, 0.0, 0.0, 0.0, 0.08294399999999999]
position_covariance_type: 2
---
header: 
  seq: 4685
  stamp: 
    secs: 1512506472
    nsecs: 400482238
  frame_id: gps
status: 
  status: 0
  service: 3
latitude: 37.4788598
longitude: -122.1453498
altitude: -29.047
position_covariance: [0.054756000000000006, 0.0, 0.0, 0.0, 0.054756000000000006, 0.0, 0.0, 0.0, 0.09060099999999999]
position_covariance_type: 2
---
header: 
  seq: 4686
  stamp: 
    secs: 1512506472
    nsecs: 600482144
  frame_id: gps
status: 
  status: 0
  service: 3
latitude: 37.4788574
longitude: -122.1453544
altitude: -28.998
position_covariance: [0.060516, 0.0, 0.0, 0.0, 0.060516, 0.0, 0.0, 0.0, 0.104976]
position_covariance_type: 2
---
header: 
  seq: 4687
  stamp: 
    secs: 1512506472
    nsecs: 800482051
  frame_id: gps
status: 
  status: 0
  service: 3
latitude: 37.4788522
longitude: -122.1453594
altitude: -28.933
position_covariance: [0.0576, 0.0, 0.0, 0.0, 0.0576, 0.0, 0.0, 0.0, 0.11833599999999998]
position_covariance_type: 2
---
header: 
  seq: 4688
  stamp: 
    secs: 1512506473
    nsecs:    481957
  frame_id: gps
status: 
  status: 0
  service: 3
latitude: 37.4788474
longitude: -122.1453636
altitude: -28.909
position_covariance: [0.0576, 0.0, 0.0, 0.0, 0.0576, 0.0, 0.0, 0.0, 0.132496]
position_covariance_type: 2
---
header: 
  seq: 4689
  stamp: 
    secs: 1512506473
    nsecs: 200481864
  frame_id: gps
status: 
  status: 0
  service: 3
latitude: 37.4788427
longitude: -122.1453673
altitude: -28.835
position_covariance: [0.053361000000000006, 0.0, 0.0, 0.0, 0.053361000000000006, 0.0, 0.0, 0.0, 0.11424400000000001]
position_covariance_type: 2
---
header: 
  seq: 4690
  stamp: 
    secs: 1512506473
    nsecs: 400481770
  frame_id: gps
status: 
  status: 0
  service: 3
latitude: 37.4788374
longitude: -122.1453703
altitude: -28.828
position_covariance: [0.054756000000000006, 0.0, 0.0, 0.0, 0.054756000000000006, 0.0, 0.0, 0.0, 0.104976]
position_covariance_type: 2
---
header: 
  seq: 4691
  stamp: 
    secs: 1512506473
    nsecs: 600481677
  frame_id: gps
status: 
  status: 0
  service: 3
latitude: 37.4788321
longitude: -122.1453731
altitude: -28.77
position_covariance: [0.055224999999999996, 0.0, 0.0, 0.0, 0.055224999999999996, 0.0, 0.0, 0.0, 0.098596]
position_covariance_type: 2
---
header: 
  seq: 4692
  stamp: 
    secs: 1512506473
    nsecs: 800481585
  frame_id: gps
status: 
  status: 0
  service: 3
latitude: 37.4788263
longitude: -122.1453758
altitude: -28.804
position_covariance: [0.047089, 0.0, 0.0, 0.0, 0.047089, 0.0, 0.0, 0.0, 0.092416]
position_covariance_type: 2
---
header: 
  seq: 4693
  stamp: 
    secs: 1512506474
    nsecs:    481491
  frame_id: gps
status: 
  status: 0
  service: 3
latitude: 37.4788206
longitude: -122.1453767
altitude: -28.785
position_covariance: [0.043264, 0.0, 0.0, 0.0, 0.043264, 0.0, 0.0, 0.0, 0.088209]
position_covariance_type: 2
---
header: 
  seq: 4694
  stamp: 
    secs: 1512506474
    nsecs: 200481398
  frame_id: gps
status: 
  status: 0
  service: 3
latitude: 37.4788146
longitude: -122.1453762
altitude: -28.715
position_covariance: [0.044521, 0.0, 0.0, 0.0, 0.044521, 0.0, 0.0, 0.0, 0.08236899999999998]
position_covariance_type: 2
---
header: 
  seq: 4695
  stamp: 
    secs: 1512506474
    nsecs: 400481303
  frame_id: gps
status: 
  status: 0
  service: 3
latitude: 37.4788085
longitude: -122.1453758
altitude: -28.729
position_covariance: [0.04409999999999999, 0.0, 0.0, 0.0, 0.04409999999999999, 0.0, 0.0, 0.0, 0.07896100000000002]
position_covariance_type: 2
---
header: 
  seq: 4696
  stamp: 
    secs: 1512506474
    nsecs: 600481210
  frame_id: gps
status: 
  status: 0
  service: 3
