header: 
  seq: 6683
  stamp: 
    secs: 1511375985
    nsecs: 899539268
  frame_id: gps
status: 
  status: 0
  service: 3
latitude: 37.4457669
longitude: -122.1654846
altitude: -11.907
position_covariance: [2.0363290000000003, 0.0, 0.0, 0.0, 2.0363290000000003, 0.0, 0.0, 0.0, 5.659641]
position_covariance_type: 2
---
header: 
  seq: 6684
  stamp: 
    secs: 1511375986
    nsecs: 4294506533
  frame_id: gps
status: 
  status: 0
  service: 3
latitude: 37.4457677
longitude: -122.1654859
altitude: -11.918
position_covariance: [2.0391839999999997, 0.0, 0.0, 0.0, 2.0391839999999997, 0.0, 0.0, 0.0, 5.659641]
position_covariance_type: 2
---
header: 
  seq: 6685
  stamp: 
    secs: 1511375986
    nsecs:  99539204
  frame_id: gps
status: 
  status: 0
  service: 3
latitude: 37.4457685
longitude: -122.1654871
altitude: -11.926
position_covariance: [2.0391839999999997, 0.0, 0.0, 0.0, 2.0391839999999997, 0.0, 0.0, 0.0, 5.659641]
position_covariance_type: 2
---
header: 
  seq: 6686
  stamp: 
    secs: 1511375986
    nsecs: 199539172
  frame_id: gps
status: 
  status: 0
  service: 3
latitude: 37.4457694
longitude: -122.1654883
altitude: -11.975
position_covariance: [2.042041, 0.0, 0.0, 0.0, 2.042041, 0.0, 0.0, 0.0, 5.659641]
position_covariance_type: 2
---
header: 
  seq: 6687
  stamp: 
    secs: 1511375986
    nsecs: 299539140
  frame_id: gps
status: 
  status: 0
  service: 3
latitude: 37.4457705
longitude: -122.1654897
altitude: -12.034
position_covariance: [2.042041, 0.0, 0.0, 0.0, 2.042041, 0.0, 0.0, 0.0, 5.659641]
position_covariance_type: 2
---
header: 
  seq: 6688
  stamp: 
    secs: 1511375986
    nsecs: 399539108
  frame_id: gps
status: 
  status: 0
  service: 3
latitude: 37.4457716
longitude: -122.1654911
altitude: -12.073
position_covariance: [2.0448999999999997, 0.0, 0.0, 0.0, 2.0448999999999997, 0.0, 0.0, 0.0, 5.659641]
position_covariance_type: 2
---
header: 
  seq: 6689
  stamp: 
    secs: 1511375986
    nsecs: 499539076
  frame_id: gps
status: 
  status: 0
  service: 3
latitude: 37.4457727
longitude: -122.1654926
altitude: -12.038
position_covariance: [2.0448999999999997, 0.0, 0.0, 0.0, 2.0448999999999997, 0.0, 0.0, 0.0, 5.659641]
position_covariance_type: 2
---
header: 
  seq: 6690
  stamp: 
    secs: 1511375986
    nsecs: 599539044
  frame_id: gps
status: 
  status: 0
  service: 3
latitude: 37.4457737
longitude: -122.1654944
altitude: -12.028
position_covariance: [2.0448999999999997, 0.0, 0.0, 0.0, 2.0448999999999997, 0.0, 0.0, 0.0, 5.659641]
position_covariance_type: 2
---
header: 
  seq: 6691
  stamp: 
    secs: 1511375986
    nsecs: 699539012
  frame_id: gps
status: 
  status: 0
  service: 3
latitude: 37.4457747
longitude: -122.1654961
altitude: -12.036
position_covariance: [2.047761, 0.0, 0.0, 0.0, 2.047761, 0.0, 0.0, 0.0, 5.659641]
position_covariance_type: 2
---
header: 
  seq: 6692
  stamp: 
    secs: 1511375986
    nsecs: 799538980
  frame_id: gps
status: 
  status: 0
  service: 3
latitude: 37.4457758
longitude: -122.1654978
altitude: -12.059
position_covariance: [2.047761, 0.0, 0.0, 0.0, 2.047761, 0.0, 0.0, 0.0, 5.659641]
position_covariance_type: 2
---
header: 
  seq: 6693
  stamp: 
    secs: 1511375986
    nsecs: 899538947
  frame_id: gps
status: 
  status: 0
  service: 3
latitude: 37.4457769
longitude: -122.1654999
altitude: -12.021
position_covariance: [2.050624, 0.0, 0.0, 0.0, 2.050624, 0.0, 0.0, 0.0, 5.669160999999999]
position_covariance_type: 2
---
header: 
  seq: 6694
  stamp: 
    secs: 1511375987
    nsecs: 4294506212
  frame_id: gps
status: 
  status: 0
  service: 3
latitude: 37.445778
longitude: -122.165502
altitude: -12.034
position_covariance: [2.0534890000000003, 0.0, 0.0, 0.0, 2.0534890000000003, 0.0, 0.0, 0.0, 5.673924]
position_covariance_type: 2
---
header: 
  seq: 6695
  stamp: 
    secs: 1511375987
    nsecs:  99538883
  frame_id: gps
status: 
  status: 0
  service: 3
latitude: 37.4457791
longitude: -122.1655039
altitude: -12.045
position_covariance: [2.0563559999999996, 0.0, 0.0, 0.0, 2.0563559999999996, 0.0, 0.0, 0.0, 5.683456]
position_covariance_type: 2
---
header: 
  seq: 6696
  stamp: 
    secs: 1511375987
    nsecs: 199538851
  frame_id: gps
status: 
  status: 0
  service: 3
latitude: 37.4457804
longitude: -122.1655058
altitude: -12.048
position_covariance: [2.059225, 0.0, 0.0, 0.0, 2.059225, 0.0, 0.0, 0.0, 5.688224999999999]
position_covariance_type: 2
---
header: 
  seq: 6697
  stamp: 
    secs: 1511375987
    nsecs: 299538819
  frame_id: gps
status: 
  status: 0
  service: 3
latitude: 37.4457817
longitude: -122.1655078
altitude: -12.07
position_covariance: [2.062096, 0.0, 0.0, 0.0, 2.062096, 0.0, 0.0, 0.0, 5.697769]
position_covariance_type: 2
---
header: 
  seq: 6698
  stamp: 
    secs: 1511375987
    nsecs: 399538787
  frame_id: gps
status: 
  status: 0
  service: 3
latitude: 37.4457829
longitude: -122.1655099
altitude: -12.066
position_covariance: [2.064969, 0.0, 0.0, 0.0, 2.064969, 0.0, 0.0, 0.0, 5.702544]
position_covariance_type: 2
---
header: 
  seq: 6699
  stamp: 
    secs: 1511375987
    nsecs: 499538754
  frame_id: gps
status: 
  status: 0
  service: 3
latitude: 37.4457842
longitude: -122.1655122
altitude: -12.05
position_covariance: [2.067844, 0.0, 0.0, 0.0, 2.067844, 0.0, 0.0, 0.0, 5.707320999999999]
position_covariance_type: 2
---
header: 
  seq: 6700
  stamp: 
    secs: 1511375987
    nsecs: 599538722
  frame_id: gps
status: 
  status: 0
  service: 3
latitude: 37.4457855
longitude: -122.1655144
altitude: -12.083
position_covariance: [2.067844, 0.0, 0.0, 0.0, 2.067844, 0.0, 0.0, 0.0, 5.7121]
position_covariance_type: 2
---
header: 
  seq: 6701
  stamp: 
    secs: 1511375987
    nsecs: 699538690
  frame_id: gps
status: 
  status: 0
  service: 3
latitude: 37.4457868
longitude: -122.1655168
altitude: -12.065
position_covariance: [2.0707210000000003, 0.0, 0.0, 0.0, 2.0707210000000003, 0.0, 0.0, 0.0, 5.7121]
position_covariance_type: 2
---
header: 
  seq: 6702
  stamp: 
    secs: 1511375987
    nsecs: 799538658
  frame_id: gps
status: 
  status: 0
  service: 3
latitude: 37.4457883
longitude: -122.1655192
altitude: -12.071
position_covariance: [2.0707210000000003, 0.0, 0.0, 0.0, 2.0707210000000003, 0.0, 0.0, 0.0, 5.7121]
position_covariance_type: 2
---
header: 
  seq: 6703
  stamp: 
    secs: 1511375987
    nsecs: 899538626
  frame_id: gps
status: 
  status: 0
  service: 3
latitude: 37.4457898
longitude: -122.1655216
altitude: -12.094
position_covariance: [2.0707210000000003, 0.0, 0.0, 0.0, 2.0707210000000003, 0.0, 0.0, 0.0, 5.7121]
position_covariance_type: 2
---
header: 
  seq: 6704
  stamp: 
    secs: 1511375988
    nsecs: 4294505891
  frame_id: gps
status: 
  status: 0
  service: 3
latitude: 37.4457912
longitude: -122.165524
altitude: -12.077
position_covariance: [2.0707210000000003, 0.0, 0.0, 0.0, 2.0707210000000003, 0.0, 0.0, 0.0, 5.7121]
position_covariance_type: 2
---
header: 
  seq: 6705
  stamp: 
    secs: 1511375988
    nsecs:  99538562
  frame_id: gps
status: 
  status: 0
  service: 3
latitude: 37.4457926
longitude: -122.1655263
altitude: -12.086
position_covariance: [2.0707210000000003, 0.0, 0.0, 0.0, 2.0707210000000003, 0.0, 0.0, 0.0, 5.707320999999999]
position_covariance_type: 2
---
header: 
  seq: 6706
  stamp: 
    secs: 1511375988
    nsecs: 199538530
  frame_id: gps
status: 
  status: 0
  service: 3
latitude: 37.4457942
longitude: -122.1655288
altitude: -12.101
position_covariance: [2.0707210000000003, 0.0, 0.0, 0.0, 2.0707210000000003, 0.0, 0.0, 0.0, 5.707320999999999]
position_covariance_type: 2
---
header: 
  seq: 6707
  stamp: 
    secs: 1511375988
    nsecs: 299538497
  frame_id: gps
status: 
  status: 0
  service: 3
latitude: 37.4457957
longitude: -122.1655311
altitude: -12.113
position_covariance: [2.067844, 0.0, 0.0, 0.0, 2.067844, 0.0, 0.0, 0.0, 5.702544]
position_covariance_type: 2
---
header: 
  seq: 6708
  stamp: 
    secs: 1511375988
    nsecs: 399538465
  frame_id: gps
status: 
  status: 0
  service: 3
latitude: 37.4457972
longitude: -122.1655335
altitude: -12.091
position_covariance: [2.067844, 0.0, 0.0, 0.0, 2.067844, 0.0, 0.0, 0.0, 5.697769]
position_covariance_type: 2
---
header: 
  seq: 6709
  stamp: 
    secs: 1511375988
    nsecs: 499538433
  frame_id: gps
status: 
  status: 0
  service: 3
latitude: 37.4457988
longitude: -122.165536
altitude: -12.079
position_covariance: [2.067844, 0.0, 0.0, 0.0, 2.067844, 0.0, 0.0, 0.0, 5.697769]
position_covariance_type: 2
---
header: 
  seq: 6710
  stamp: 
    secs: 1511375988
    nsecs: 599538401
  frame_id: gps
status: 
  status: 0
  service: 3
latitude: 37.4458003
longitude: -122.1655383
altitude: -12.121
position_covariance: [2.0707210000000003, 0.0, 0.0, 0.0, 2.0707210000000003, 0.0, 0.0, 0.0, 5.702544]
position_covariance_type: 2
---
header: 
  seq: 6711
  stamp: 
    secs: 1511375988
    nsecs: 699538369
  frame_id: gps
status: 
  status: 0
  service: 3
latitude: 37.445802
longitude: -122.1655409
altitude: -12.104
position_covariance: [2.0707210000000003, 0.0, 0.0, 0.0, 2.0707210000000003, 0.0, 0.0, 0.0, 5.702544]
position_covariance_type: 2
---
header: 
  seq: 6712
  stamp: 
    secs: 1511375988
    nsecs: 799538337
  frame_id: gps
status: 
  status: 0
  service: 3
latitude: 37.4458035
longitude: -122.1655435
altitude: -12.075
position_covariance: [2.0707210000000003, 0.0, 0.0, 0.0, 2.0707210000000003, 0.0, 0.0, 0.0, 5.702544]
position_covariance_type: 2
---
header: 
  seq: 6713
  stamp: 
    secs: 1511375988
    nsecs: 899538305
  frame_id: gps
status: 
  status: 0
  service: 3
latitude: 37.4458054
longitude: -122.165546
altitude: -12.083
position_covariance: [2.067844, 0.0, 0.0, 0.0, 2.067844, 0.0, 0.0, 0.0, 5.697769]
position_covariance_type: 2
---
header: 
  seq: 6714
  stamp: 
    secs: 1511375989
    nsecs: 4294505569
  frame_id: gps
status: 
  status: 0
  service: 3
latitude: 37.445807
longitude: -122.1655487
altitude: -12.072
position_covariance: [2.067844, 0.0, 0.0, 0.0, 2.067844, 0.0, 0.0, 0.0, 5.697769]
position_covariance_type: 2
---
header: 
  seq: 6715
  stamp: 
    secs: 1511375989
    nsecs:  99538240
  frame_id: gps
status: 
  status: 0
  service: 3
latitude: 37.4458086
longitude: -122.1655514
altitude: -12.092
position_covariance: [2.064969, 0.0, 0.0, 0.0, 2.064969, 0.0, 0.0, 0.0, 5.692996000000001]
position_covariance_type: 2
---
header: 
  seq: 6716
  stamp: 
    secs: 1511375989
    nsecs: 199538208
  frame_id: gps
status: 
  status: 0
  service: 3
latitude: 37.4458101
longitude: -122.1655541
altitude: -12.039
position_covariance: [2.062096, 0.0, 0.0, 0.0, 2.062096, 0.0, 0.0, 0.0, 5.673924]
position_covariance_type: 2
---
header: 
  seq: 6717
  stamp: 
    secs: 1511375989
    nsecs: 299538176
  frame_id: gps
status: 
  status: 0
  service: 3
latitude: 37.4458116
longitude: -122.1655568
altitude: -12.035
position_covariance: [2.0563559999999996, 0.0, 0.0, 0.0, 2.0563559999999996, 0.0, 0.0, 0.0, 5.654884000000001]
position_covariance_type: 2
---
header: 
  seq: 6718
  stamp: 
    secs: 1511375989
    nsecs: 399538144
  frame_id: gps
status: 
  status: 0
  service: 3
latitude: 37.4458132
longitude: -122.1655595
altitude: -12.05
position_covariance: [2.050624, 0.0, 0.0, 0.0, 2.050624, 0.0, 0.0, 0.0, 5.6358760000000006]
position_covariance_type: 2
---
header: 
  seq: 6719
  stamp: 
    secs: 1511375989
    nsecs: 499538112
  frame_id: gps
status: 
  status: 0
  service: 3
latitude: 37.4458148
longitude: -122.1655622
altitude: -12.079
position_covariance: [2.047761, 0.0, 0.0, 0.0, 2.047761, 0.0, 0.0, 0.0, 5.621641]
position_covariance_type: 2
---
header: 
  seq: 6720
  stamp: 
    secs: 1511375989
    nsecs: 599538080
  frame_id: gps
status: 
  status: 0
  service: 3
latitude: 37.4458165
longitude: -122.1655649
altitude: -12.107
position_covariance: [2.0448999999999997, 0.0, 0.0, 0.0, 2.0448999999999997, 0.0, 0.0, 0.0, 5.607423999999999]
position_covariance_type: 2
---
header: 
  seq: 6721
  stamp: 
    secs: 1511375989
    nsecs: 699538048
  frame_id: gps
status: 
  status: 0
  service: 3
latitude: 37.4458182
longitude: -122.1655675
altitude: -12.099
position_covariance: [2.042041, 0.0, 0.0, 0.0, 2.042041, 0.0, 0.0, 0.0, 5.593225000000001]
position_covariance_type: 2
---
header: 
  seq: 6722
  stamp: 
    secs: 1511375989
    nsecs: 799538015
  frame_id: gps
status: 
  status: 0
  service: 3
latitude: 37.4458199
longitude: -122.1655702
altitude: -12.111
position_covariance: [2.0363290000000003, 0.0, 0.0, 0.0, 2.0363290000000003, 0.0, 0.0, 0.0, 5.574321000000001]
position_covariance_type: 2
---
header: 
  seq: 6723
  stamp: 
    secs: 1511375989
    nsecs: 899537983
  frame_id: gps
status: 
  status: 0
  service: 3
latitude: 37.4458216
longitude: -122.165573
altitude: -12.176
position_covariance: [2.033476, 0.0, 0.0, 0.0, 2.033476, 0.0, 0.0, 0.0, 5.560164]
position_covariance_type: 2
---
header: 
  seq: 6724
  stamp: 
    secs: 1511375990
    nsecs: 4294505248
  frame_id: gps
status: 
  status: 0
  service: 3
latitude: 37.4458233
longitude: -122.1655757
altitude: -12.162
position_covariance: [2.033476, 0.0, 0.0, 0.0, 2.033476, 0.0, 0.0, 0.0, 5.546025]
position_covariance_type: 2
---
header: 
  seq: 6725
  stamp: 
    secs: 1511375990
    nsecs:  99537919
  frame_id: gps
status: 
  status: 0
  service: 3
latitude: 37.445825
longitude: -122.1655785
altitude: -12.194
position_covariance: [2.030625, 0.0, 0.0, 0.0, 2.030625, 0.0, 0.0, 0.0, 5.536609000000001]
position_covariance_type: 2
---
header: 
  seq: 6726
  stamp: 
    secs: 1511375990
    nsecs: 199537887
  frame_id: gps
status: 
  status: 0
  service: 3
latitude: 37.4458267
longitude: -122.1655812
altitude: -12.246
position_covariance: [2.027776, 0.0, 0.0, 0.0, 2.027776, 0.0, 0.0, 0.0, 5.517801000000001]
position_covariance_type: 2
---
header: 
  seq: 6727
  stamp: 
    secs: 1511375990
    nsecs: 299537855
  frame_id: gps
status: 
  status: 0
  service: 3
latitude: 37.4458285
longitude: -122.1655839
altitude: -12.246
position_covariance: [2.024929, 0.0, 0.0, 0.0, 2.024929, 0.0, 0.0, 0.0, 5.503716000000001]
position_covariance_type: 2
---
header: 
  seq: 6728
  stamp: 
    secs: 1511375990
    nsecs: 399537823
  frame_id: gps
status: 
  status: 0
  service: 3
latitude: 37.4458301
longitude: -122.1655865
altitude: -12.285
position_covariance: [2.022084, 0.0, 0.0, 0.0, 2.022084, 0.0, 0.0, 0.0, 5.4990250000000005]
position_covariance_type: 2
---
header: 
  seq: 6729
  stamp: 
    secs: 1511375990
    nsecs: 499537791
  frame_id: gps
status: 
  status: 0
  service: 3
latitude: 37.4458318
longitude: -122.1655891
altitude: -12.302
position_covariance: [2.022084, 0.0, 0.0, 0.0, 2.022084, 0.0, 0.0, 0.0, 5.494336]
position_covariance_type: 2
---
header: 
  seq: 6730
  stamp: 
    secs: 1511375990
    nsecs: 599537759
  frame_id: gps
status: 
  status: 0
  service: 3
latitude: 37.4458334
longitude: -122.1655917
altitude: -12.301
position_covariance: [2.022084, 0.0, 0.0, 0.0, 2.022084, 0.0, 0.0, 0.0, 5.494336]
position_covariance_type: 2
---
header: 
  seq: 6731
  stamp: 
    secs: 1511375990
    nsecs: 699537727
  frame_id: gps
status: 
  status: 0
  service: 3
latitude: 37.4458349
longitude: -122.1655943
altitude: -12.305
position_covariance: [2.022084, 0.0, 0.0, 0.0, 2.022084, 0.0, 0.0, 0.0, 5.489649]
position_covariance_type: 2
---
header: 
  seq: 6732
  stamp: 
    secs: 1511375990
    nsecs: 799537694
  frame_id: gps
status: 
  status: 0
  service: 3
latitude: 37.4458365
longitude: -122.1655968
altitude: -12.302
position_covariance: [2.022084, 0.0, 0.0, 0.0, 2.022084, 0.0, 0.0, 0.0, 5.489649]
position_covariance_type: 2
---
header: 
  seq: 6733
  stamp: 
    secs: 1511375990
    nsecs: 899537662
  frame_id: gps
status: 
  status: 0
  service: 3
latitude: 37.4458382
longitude: -122.1655994
altitude: -12.367
position_covariance: [2.022084, 0.0, 0.0, 0.0, 2.022084, 0.0, 0.0, 0.0, 5.489649]
position_covariance_type: 2
---
header: 
  seq: 6734
  stamp: 
    secs: 1511375991
    nsecs: 4294504927
  frame_id: gps
status: 
  status: 0
  service: 3
latitude: 37.4458398
longitude: -122.165602
altitude: -12.357
position_covariance: [2.022084, 0.0, 0.0, 0.0, 2.022084, 0.0, 0.0, 0.0, 5.484964000000001]
position_covariance_type: 2
---
header: 
  seq: 6735
  stamp: 
    secs: 1511375991
    nsecs:  99537598
  frame_id: gps
status: 
  status: 0
  service: 3
latitude: 37.4458413
longitude: -122.1656044
altitude: -12.381
position_covariance: [2.022084, 0.0, 0.0, 0.0, 2.022084, 0.0, 0.0, 0.0, 5.484964000000001]
position_covariance_type: 2
---
header: 
  seq: 6736
  stamp: 
    secs: 1511375991
    nsecs: 199537566
  frame_id: gps
status: 
  status: 0
  service: 3
latitude: 37.4458429
longitude: -122.1656068
altitude: -12.381
position_covariance: [2.024929, 0.0, 0.0, 0.0, 2.024929, 0.0, 0.0, 0.0, 5.489649]
position_covariance_type: 2
---
header: 
  seq: 6737
  stamp: 
    secs: 1511375991
    nsecs: 299537534
  frame_id: gps
status: 
  status: 0
  service: 3
latitude: 37.4458446
longitude: -122.1656092
altitude: -12.425
position_covariance: [2.024929, 0.0, 0.0, 0.0, 2.024929, 0.0, 0.0, 0.0, 5.489649]
position_covariance_type: 2
---
header: 
  seq: 6738
  stamp: 
    secs: 1511375991
    nsecs: 399537502
  frame_id: gps
status: 
  status: 0
  service: 3
latitude: 37.4458462
longitude: -122.1656114
altitude: -12.451
position_covariance: [2.027776, 0.0, 0.0, 0.0, 2.027776, 0.0, 0.0, 0.0, 5.494336]
position_covariance_type: 2
---
header: 
  seq: 6739
  stamp: 
    secs: 1511375991
    nsecs: 499537470
  frame_id: gps
status: 
  status: 0
  service: 3
latitude: 37.4458477
longitude: -122.1656139
altitude: -12.456
position_covariance: [2.027776, 0.0, 0.0, 0.0, 2.027776, 0.0, 0.0, 0.0, 5.494336]
position_covariance_type: 2
---
header: 
  seq: 6740
  stamp: 
    secs: 1511375991
    nsecs: 599537438
  frame_id: gps
status: 
  status: 0
  service: 3
latitude: 37.4458492
longitude: -122.1656161
altitude: -12.462
position_covariance: [2.027776, 0.0, 0.0, 0.0, 2.027776, 0.0, 0.0, 0.0, 5.4990250000000005]
position_covariance_type: 2
---
header: 
  seq: 6741
  stamp: 
    secs: 1511375991
    nsecs: 699537406
  frame_id: gps
status: 
  status: 0
  service: 3
latitude: 37.4458508
longitude: -122.1656184
altitude: -12.495
position_covariance: [2.030625, 0.0, 0.0, 0.0, 2.030625, 0.0, 0.0, 0.0, 5.4990250000000005]
position_covariance_type: 2
---
header: 
  seq: 6742
  stamp: 
    secs: 1511375991
    nsecs: 799537374
  frame_id: gps
status: 
  status: 0
  service: 3
latitude: 37.4458524
longitude: -122.1656206
altitude: -12.522
position_covariance: [2.030625, 0.0, 0.0, 0.0, 2.030625, 0.0, 0.0, 0.0, 5.503716000000001]
position_covariance_type: 2
---
header: 
  seq: 6743
  stamp: 
    secs: 1511375991
    nsecs: 899537342
  frame_id: gps
status: 
  status: 0
  service: 3
latitude: 37.4458539
longitude: -122.1656226
altitude: -12.513
position_covariance: [2.033476, 0.0, 0.0, 0.0, 2.033476, 0.0, 0.0, 0.0, 5.5084089999999994]
position_covariance_type: 2
---
header: 
  seq: 6744
  stamp: 
    secs: 1511375992
    nsecs: 4294504606
  frame_id: gps
status: 
  status: 0
  service: 3
latitude: 37.4458554
longitude: -122.1656247
altitude: -12.548
position_covariance: [2.033476, 0.0, 0.0, 0.0, 2.033476, 0.0, 0.0, 0.0, 5.513103999999999]
position_covariance_type: 2
---
header: 
  seq: 6745
  stamp: 
    secs: 1511375992
    nsecs:  99537277
  frame_id: gps
status: 
  status: 0
  service: 3
latitude: 37.4458568
longitude: -122.1656266
altitude: -12.483
position_covariance: [2.033476, 0.0, 0.0, 0.0, 2.033476, 0.0, 0.0, 0.0, 5.517801000000001]
position_covariance_type: 2
---
header: 
  seq: 6746
  stamp: 
    secs: 1511375992
    nsecs: 199537245
  frame_id: gps
status: 
  status: 0
  service: 3
latitude: 37.445858
longitude: -122.1656286
altitude: -12.489
position_covariance: [2.0363290000000003, 0.0, 0.0, 0.0, 2.0363290000000003, 0.0, 0.0, 0.0, 5.536609000000001]
position_covariance_type: 2
---
header: 
  seq: 6747
  stamp: 
    secs: 1511375992
    nsecs: 299537213
  frame_id: gps
status: 
  status: 0
  service: 3
latitude: 37.4458593
longitude: -122.1656304
altitude: -12.484
position_covariance: [2.0391839999999997, 0.0, 0.0, 0.0, 2.0391839999999997, 0.0, 0.0, 0.0, 5.550736]
position_covariance_type: 2
---
header: 
  seq: 6748
  stamp: 
    secs: 1511375992
    nsecs: 399537181
  frame_id: gps
status: 
  status: 0
  service: 3
latitude: 37.4458606
longitude: -122.165632
altitude: -12.493
position_covariance: [2.042041, 0.0, 0.0, 0.0, 2.042041, 0.0, 0.0, 0.0, 5.569599999999999]
position_covariance_type: 2
---
header: 
  seq: 6749
  stamp: 
    secs: 1511375992
    nsecs: 499537149
  frame_id: gps
status: 
  status: 0
  service: 3
latitude: 37.4458619
longitude: -122.1656338
altitude: -12.498
position_covariance: [2.047761, 0.0, 0.0, 0.0, 2.047761, 0.0, 0.0, 0.0, 5.583769]
position_covariance_type: 2
---
header: 
  seq: 6750
  stamp: 
    secs: 1511375992
    nsecs: 599537117
  frame_id: gps
status: 
  status: 0
  service: 3
latitude: 37.4458632
longitude: -122.1656353
altitude: -12.521
position_covariance: [2.047761, 0.0, 0.0, 0.0, 2.047761, 0.0, 0.0, 0.0, 5.597956000000001]
position_covariance_type: 2
---
header: 
  seq: 6751
  stamp: 
    secs: 1511375992
    nsecs: 699537084
  frame_id: gps
status: 
  status: 0
  service: 3
latitude: 37.4458645
longitude: -122.1656367
altitude: -12.525
position_covariance: [2.050624, 0.0, 0.0, 0.0, 2.050624, 0.0, 0.0, 0.0, 5.612161000000001]
position_covariance_type: 2
---
header: 
  seq: 6752
  stamp: 
    secs: 1511375992
    nsecs: 799537052
  frame_id: gps
status: 
  status: 0
  service: 3
latitude: 37.4458659
longitude: -122.1656383
altitude: -12.528
position_covariance: [2.0534890000000003, 0.0, 0.0, 0.0, 2.0534890000000003, 0.0, 0.0, 0.0, 5.626384]
position_covariance_type: 2
---
header: 
  seq: 6753
  stamp: 
    secs: 1511375992
    nsecs: 899537020
  frame_id: gps
status: 
  status: 0
  service: 3
latitude: 37.4458671
longitude: -122.1656398
altitude: -12.532
position_covariance: [2.0563559999999996, 0.0, 0.0, 0.0, 2.0563559999999996, 0.0, 0.0, 0.0, 5.645376]
position_covariance_type: 2
---
header: 
  seq: 6754
  stamp: 
    secs: 1511375993
    nsecs: 4294504285
  frame_id: gps
status: 
  status: 0
  service: 3
latitude: 37.4458685
longitude: -122.1656413
altitude: -12.505
position_covariance: [2.0563559999999996, 0.0, 0.0, 0.0, 2.0563559999999996, 0.0, 0.0, 0.0, 5.659641]
position_covariance_type: 2
---
header: 
  seq: 6755
  stamp: 
    secs: 1511375993
    nsecs:  99536956
  frame_id: gps
status: 
  status: 0
  service: 3
latitude: 37.4458699
longitude: -122.1656429
altitude: -12.509
position_covariance: [2.062096, 0.0, 0.0, 0.0, 2.062096, 0.0, 0.0, 0.0, 5.678689]
position_covariance_type: 2
---
header: 
  seq: 6756
  stamp: 
    secs: 1511375993
    nsecs: 199536924
  frame_id: gps
status: 
  status: 0
  service: 3
latitude: 37.4458712
longitude: -122.1656446
altitude: -12.478
position_covariance: [2.067844, 0.0, 0.0, 0.0, 2.067844, 0.0, 0.0, 0.0, 5.697769]
position_covariance_type: 2
---
header: 
  seq: 6757
  stamp: 
    secs: 1511375993
    nsecs: 299536891
  frame_id: gps
status: 
  status: 0
  service: 3
latitude: 37.4458727
longitude: -122.1656462
altitude: -12.48
position_covariance: [2.0707210000000003, 0.0, 0.0, 0.0, 2.0707210000000003, 0.0, 0.0, 0.0, 5.716881]
position_covariance_type: 2
---
header: 
  seq: 6758
  stamp: 
    secs: 1511375993
    nsecs: 399536859
  frame_id: gps
status: 
  status: 0
  service: 3
latitude: 37.4458744
longitude: -122.1656476
altitude: -12.451
position_covariance: [2.0736, 0.0, 0.0, 0.0, 2.0736, 0.0, 0.0, 0.0, 5.736025]
position_covariance_type: 2
---
header: 
  seq: 6759
  stamp: 
    secs: 1511375993
    nsecs: 499536827
  frame_id: gps
status: 
  status: 0
  service: 3
latitude: 37.445876
longitude: -122.1656489
altitude: -12.434
position_covariance: [2.0736, 0.0, 0.0, 0.0, 2.0736, 0.0, 0.0, 0.0, 5.7552010000000005]
position_covariance_type: 2
---
header: 
  seq: 6760
  stamp: 
    secs: 1511375993
    nsecs: 599536795
  frame_id: gps
status: 
  status: 0
  service: 3
latitude: 37.4458775
longitude: -122.1656504
altitude: -12.387
position_covariance: [2.0736, 0.0, 0.0, 0.0, 2.0736, 0.0, 0.0, 0.0, 5.774409]
position_covariance_type: 2
---
header: 
  seq: 6761
  stamp: 
    secs: 1511375993
    nsecs: 699536762
  frame_id: gps
status: 
  status: 0
  service: 3
latitude: 37.445879
longitude: -122.1656518
altitude: -12.385
position_covariance: [2.0707210000000003, 0.0, 0.0, 0.0, 2.0707210000000003, 0.0, 0.0, 0.0, 5.793649]
position_covariance_type: 2
---
header: 
  seq: 6762
  stamp: 
    secs: 1511375993
    nsecs: 799536730
  frame_id: gps
status: 
  status: 0
  service: 3
latitude: 37.4458806
longitude: -122.1656531
altitude: -12.423
position_covariance: [2.067844, 0.0, 0.0, 0.0, 2.067844, 0.0, 0.0, 0.0, 5.8081000000000005]
position_covariance_type: 2
---
header: 
  seq: 6763
  stamp: 
    secs: 1511375993
    nsecs: 899536698
  frame_id: gps
status: 
  status: 0
  service: 3
latitude: 37.4458822
longitude: -122.1656543
altitude: -12.449
position_covariance: [2.067844, 0.0, 0.0, 0.0, 2.067844, 0.0, 0.0, 0.0, 5.822568999999999]
position_covariance_type: 2
---
header: 
  seq: 6764
  stamp: 
    secs: 1511375994
    nsecs: 4294503963
  frame_id: gps
status: 
  status: 0
  service: 3
latitude: 37.4458837
longitude: -122.1656552
altitude: -12.448
position_covariance: [2.067844, 0.0, 0.0, 0.0, 2.067844, 0.0, 0.0, 0.0, 5.837056]
position_covariance_type: 2
---
header: 
  seq: 6765
  stamp: 
    secs: 1511375994
    nsecs:  99536634
  frame_id: gps
status: 
  status: 0
  service: 3
latitude: 37.4458854
longitude: -122.165656
altitude: -12.486
position_covariance: [2.067844, 0.0, 0.0, 0.0, 2.067844, 0.0, 0.0, 0.0, 5.851561]
position_covariance_type: 2
---
header: 
  seq: 6766
  stamp: 
    secs: 1511375994
    nsecs: 199536602
  frame_id: gps
status: 
  status: 0
  service: 3
latitude: 37.4458869
longitude: -122.1656567
altitude: -12.527
position_covariance: [2.067844, 0.0, 0.0, 0.0, 2.067844, 0.0, 0.0, 0.0, 5.866084000000001]
position_covariance_type: 2
---
header: 
  seq: 6767
  stamp: 
    secs: 1511375994
    nsecs: 299536570
  frame_id: gps
status: 
  status: 0
  service: 3
latitude: 37.4458885
longitude: -122.1656572
altitude: -12.535
position_covariance: [2.067844, 0.0, 0.0, 0.0, 2.067844, 0.0, 0.0, 0.0, 5.875776]
position_covariance_type: 2
---
header: 
  seq: 6768
  stamp: 
    secs: 1511375994
    nsecs: 399536538
  frame_id: gps
status: 
  status: 0
  service: 3
latitude: 37.4458899
longitude: -122.1656578
altitude: -12.566
position_covariance: [2.0707210000000003, 0.0, 0.0, 0.0, 2.0707210000000003, 0.0, 0.0, 0.0, 5.890329]
position_covariance_type: 2
---
header: 
  seq: 6769
  stamp: 
    secs: 1511375994
    nsecs: 499536506
  frame_id: gps
status: 
  status: 0
  service: 3
latitude: 37.4458912
longitude: -122.1656586
altitude: -12.598
position_covariance: [2.0736, 0.0, 0.0, 0.0, 2.0736, 0.0, 0.0, 0.0, 5.900040999999999]
position_covariance_type: 2
---
header: 
  seq: 6770
  stamp: 
    secs: 1511375994
    nsecs: 599536473
  frame_id: gps
status: 
  status: 0
  service: 3
latitude: 37.4458925
longitude: -122.1656595
altitude: -12.565
position_covariance: [2.0736, 0.0, 0.0, 0.0, 2.0736, 0.0, 0.0, 0.0, 5.914624]
position_covariance_type: 2
---
header: 
  seq: 6771
  stamp: 
    secs: 1511375994
    nsecs: 699536441
  frame_id: gps
status: 
  status: 0
  service: 3
latitude: 37.4458938
longitude: -122.1656604
altitude: -12.529
position_covariance: [2.0764810000000002, 0.0, 0.0, 0.0, 2.0764810000000002, 0.0, 0.0, 0.0, 5.924356]
position_covariance_type: 2
---
header: 
  seq: 6772
  stamp: 
    secs: 1511375994
    nsecs: 799536409
  frame_id: gps
status: 
  status: 0
  service: 3
latitude: 37.4458953
longitude: -122.1656611
altitude: -12.52
position_covariance: [2.0764810000000002, 0.0, 0.0, 0.0, 2.0764810000000002, 0.0, 0.0, 0.0, 5.938968999999999]
position_covariance_type: 2
---
header: 
  seq: 6773
  stamp: 
    secs: 1511375994
    nsecs: 899536377
  frame_id: gps
status: 
  status: 0
  service: 3
latitude: 37.4458968
longitude: -122.1656615
altitude: -12.505
position_covariance: [2.079364, 0.0, 0.0, 0.0, 2.079364, 0.0, 0.0, 0.0, 5.948721]
position_covariance_type: 2
---
header: 
  seq: 6774
  stamp: 
    secs: 1511375995
    nsecs: 4294503642
  frame_id: gps
status: 
  status: 0
  service: 3
latitude: 37.4458984
longitude: -122.1656618
altitude: -12.515
position_covariance: [2.082249, 0.0, 0.0, 0.0, 2.082249, 0.0, 0.0, 0.0, 5.963364000000001]
position_covariance_type: 2
---
header: 
  seq: 6775
  stamp: 
    secs: 1511375995
    nsecs:  99536312
  frame_id: gps
status: 
  status: 0
  service: 3
latitude: 37.4459001
longitude: -122.1656617
altitude: -12.511
position_covariance: [2.085136, 0.0, 0.0, 0.0, 2.085136, 0.0, 0.0, 0.0, 5.973135999999999]
position_covariance_type: 2
---
header: 
  seq: 6776
  stamp: 
    secs: 1511375995
    nsecs: 199536280
  frame_id: gps
status: 
  status: 0
  service: 3
latitude: 37.4459018
longitude: -122.1656614
altitude: -12.494
position_covariance: [2.085136, 0.0, 0.0, 0.0, 2.085136, 0.0, 0.0, 0.0, 5.987809]
position_covariance_type: 2
---
header: 
  seq: 6777
  stamp: 
    secs: 1511375995
    nsecs: 299536248
  frame_id: gps
status: 
  status: 0
  service: 3
latitude: 37.4459035
longitude: -122.165661
altitude: -12.438
position_covariance: [2.088025, 0.0, 0.0, 0.0, 2.088025, 0.0, 0.0, 0.0, 6.002500000000001]
position_covariance_type: 2
---
header: 
  seq: 6778
  stamp: 
    secs: 1511375995
    nsecs: 399536216
  frame_id: gps
status: 
  status: 0
  service: 3
latitude: 37.4459052
longitude: -122.1656605
altitude: -12.397
position_covariance: [2.088025, 0.0, 0.0, 0.0, 2.088025, 0.0, 0.0, 0.0, 6.017208999999999]
position_covariance_type: 2
---
header: 
  seq: 6779
  stamp: 
    secs: 1511375995
    nsecs: 499536183
  frame_id: gps
status: 
  status: 0
  service: 3
latitude: 37.445907
longitude: -122.1656601
altitude: -12.388
position_covariance: [2.088025, 0.0, 0.0, 0.0, 2.088025, 0.0, 0.0, 0.0, 6.031936]
position_covariance_type: 2
---
header: 
  seq: 6780
  stamp: 
    secs: 1511375995
    nsecs: 599536151
  frame_id: gps
status: 
  status: 0
  service: 3
latitude: 37.4459087
longitude: -122.1656598
altitude: -12.335
position_covariance: [2.085136, 0.0, 0.0, 0.0, 2.085136, 0.0, 0.0, 0.0, 6.041764000000001]
position_covariance_type: 2
---
header: 
  seq: 6781
  stamp: 
    secs: 1511375995
    nsecs: 699536119
  frame_id: gps
status: 
  status: 0
  service: 3
latitude: 37.4459106
longitude: -122.1656596
altitude: -12.33
position_covariance: [2.085136, 0.0, 0.0, 0.0, 2.085136, 0.0, 0.0, 0.0, 6.056520999999999]
position_covariance_type: 2
---
header: 
  seq: 6782
  stamp: 
    secs: 1511375995
    nsecs: 799536087
  frame_id: gps
status: 
  status: 0
  service: 3
latitude: 37.4459123
longitude: -122.1656593
altitude: -12.293
position_covariance: [2.082249, 0.0, 0.0, 0.0, 2.082249, 0.0, 0.0, 0.0, 6.071296]
position_covariance_type: 2
---
header: 
  seq: 6783
  stamp: 
    secs: 1511375995
    nsecs: 899536055
  frame_id: gps
status: 
  status: 0
  service: 3
latitude: 37.4459142
longitude: -122.1656589
altitude: -12.304
position_covariance: [2.082249, 0.0, 0.0, 0.0, 2.082249, 0.0, 0.0, 0.0, 6.061444000000001]
position_covariance_type: 2
---
header: 
  seq: 6784
  stamp: 
    secs: 1511375996
    nsecs: 4294503320
  frame_id: gps
status: 
  status: 0
  service: 3
latitude: 37.445916
longitude: -122.1656582
altitude: -12.296
position_covariance: [2.082249, 0.0, 0.0, 0.0, 2.082249, 0.0, 0.0, 0.0, 6.076224999999999]
position_covariance_type: 2
---
header: 
  seq: 6785
  stamp: 
    secs: 1511375996
    nsecs:  99535990
  frame_id: gps
status: 
  status: 0
  service: 3
latitude: 37.4459179
longitude: -122.1656575
altitude: -12.302
position_covariance: [2.085136, 0.0, 0.0, 0.0, 2.085136, 0.0, 0.0, 0.0, 6.086089]
position_covariance_type: 2
---
header: 
  seq: 6786
  stamp: 
    secs: 1511375996
    nsecs: 199535958
  frame_id: gps
status: 
  status: 0
  service: 3
latitude: 37.4459198
longitude: -122.1656568
altitude: -12.254
position_covariance: [2.085136, 0.0, 0.0, 0.0, 2.085136, 0.0, 0.0, 0.0, 6.091024]
position_covariance_type: 2
---
header: 
  seq: 6787
  stamp: 
    secs: 1511375996
    nsecs: 299535926
  frame_id: gps
status: 
  status: 0
  service: 3
latitude: 37.4459218
longitude: -122.1656559
altitude: -12.284
position_covariance: [2.088025, 0.0, 0.0, 0.0, 2.088025, 0.0, 0.0, 0.0, 6.095960999999999]
position_covariance_type: 2
---
header: 
  seq: 6788
  stamp: 
    secs: 1511375996
    nsecs: 399535894
  frame_id: gps
status: 
  status: 0
  service: 3
latitude: 37.4459239
longitude: -122.165655
altitude: -12.316
position_covariance: [2.088025, 0.0, 0.0, 0.0, 2.088025, 0.0, 0.0, 0.0, 6.095960999999999]
position_covariance_type: 2
---
header: 
  seq: 6789
  stamp: 
    secs: 1511375996
    nsecs: 499535862
  frame_id: gps
status: 
  status: 0
  service: 3
latitude: 37.445926
longitude: -122.1656541
altitude: -12.304
position_covariance: [2.088025, 0.0, 0.0, 0.0, 2.088025, 0.0, 0.0, 0.0, 6.100900000000001]
position_covariance_type: 2
---
header: 
  seq: 6790
  stamp: 
    secs: 1511375996
    nsecs: 599535830
  frame_id: gps
status: 
  status: 0
  service: 3
latitude: 37.4459281
longitude: -122.165653
altitude: -12.321
position_covariance: [2.088025, 0.0, 0.0, 0.0, 2.088025, 0.0, 0.0, 0.0, 6.100900000000001]
position_covariance_type: 2
---
header: 
  seq: 6791
  stamp: 
    secs: 1511375996
    nsecs: 699535798
  frame_id: gps
status: 
  status: 0
  service: 3
latitude: 37.4459302
longitude: -122.165652
altitude: -12.344
position_covariance: [2.090916, 0.0, 0.0, 0.0, 2.090916, 0.0, 0.0, 0.0, 6.105841000000001]
position_covariance_type: 2
---
header: 
  seq: 6792
  stamp: 
    secs: 1511375996
    nsecs: 799535765
  frame_id: gps
status: 
  status: 0
  service: 3
latitude: 37.4459321
longitude: -122.1656507
altitude: -12.302
position_covariance: [2.0938090000000003, 0.0, 0.0, 0.0, 2.0938090000000003, 0.0, 0.0, 0.0, 6.115728999999999]
position_covariance_type: 2
---
header: 
  seq: 6793
  stamp: 
    secs: 1511375996
    nsecs: 899535733
  frame_id: gps
status: 
  status: 0
  service: 3
latitude: 37.4459337
longitude: -122.1656491
altitude: -12.131
position_covariance: [2.096704, 0.0, 0.0, 0.0, 2.096704, 0.0, 0.0, 0.0, 6.120676000000001]
position_covariance_type: 2
---
header: 
  seq: 6794
  stamp: 
    secs: 1511375997
    nsecs: 4294502997
  frame_id: gps
status: 
  status: 0
  service: 3
latitude: 37.4459352
longitude: -122.1656471
altitude: -11.946
position_covariance: [2.1025, 0.0, 0.0, 0.0, 2.1025, 0.0, 0.0, 0.0, 6.125625]
position_covariance_type: 2
---
header: 
  seq: 6795
  stamp: 
    secs: 1511375997
    nsecs:  99535668
  frame_id: gps
status: 
  status: 0
  service: 3
latitude: 37.4459368
longitude: -122.1656452
altitude: -11.867
position_covariance: [2.108304, 0.0, 0.0, 0.0, 2.108304, 0.0, 0.0, 0.0, 6.140484000000001]
position_covariance_type: 2
---
header: 
  seq: 6796
  stamp: 
    secs: 1511375997
    nsecs: 199535635
  frame_id: gps
status: 
  status: 0
  service: 3
latitude: 37.4459387
longitude: -122.1656432
altitude: -11.799
position_covariance: [2.1141159999999997, 0.0, 0.0, 0.0, 2.1141159999999997, 0.0, 0.0, 0.0, 6.1652890000000005]
position_covariance_type: 2
---
header: 
  seq: 6797
  stamp: 
    secs: 1511375997
    nsecs: 299535603
  frame_id: gps
status: 
  status: 0
  service: 3
latitude: 37.4459407
longitude: -122.1656413
altitude: -11.744
position_covariance: [2.1228490000000004, 0.0, 0.0, 0.0, 2.1228490000000004, 0.0, 0.0, 0.0, 6.190144]
position_covariance_type: 2
---
header: 
  seq: 6798
  stamp: 
    secs: 1511375997
    nsecs: 399535571
  frame_id: gps
status: 
  status: 0
  service: 3
latitude: 37.4459428
longitude: -122.1656393
altitude: -11.711
position_covariance: [2.1315999999999997, 0.0, 0.0, 0.0, 2.1315999999999997, 0.0, 0.0, 0.0, 6.210064]
position_covariance_type: 2
---
header: 
  seq: 6799
  stamp: 
    secs: 1511375997
    nsecs: 499535539
  frame_id: gps
status: 
  status: 0
  service: 3
latitude: 37.445945
longitude: -122.1656373
altitude: -11.705
position_covariance: [2.140369, 0.0, 0.0, 0.0, 2.140369, 0.0, 0.0, 0.0, 6.235009]
position_covariance_type: 2
---
header: 
  seq: 6800
  stamp: 
    secs: 1511375997
    nsecs: 599535506
  frame_id: gps
status: 
  status: 0
  service: 3
latitude: 37.4459472
longitude: -122.1656352
altitude: -11.646
position_covariance: [2.149156, 0.0, 0.0, 0.0, 2.149156, 0.0, 0.0, 0.0, 6.25]
position_covariance_type: 2
---
header: 
  seq: 6801
  stamp: 
    secs: 1511375997
    nsecs: 699535474
  frame_id: gps
status: 
  status: 0
  service: 3
latitude: 37.4459495
longitude: -122.1656331
altitude: -11.661
position_covariance: [2.155024, 0.0, 0.0, 0.0, 2.155024, 0.0, 0.0, 0.0, 6.270016]
position_covariance_type: 2
---
header: 
  seq: 6802
  stamp: 
    secs: 1511375997
    nsecs: 799535442
  frame_id: gps
status: 
  status: 0
  service: 3
latitude: 37.4459517
longitude: -122.1656309
altitude: -11.607
position_covariance: [2.1609, 0.0, 0.0, 0.0, 2.1609, 0.0, 0.0, 0.0, 6.285049000000001]
position_covariance_type: 2
---
header: 
  seq: 6803
  stamp: 
    secs: 1511375997
    nsecs: 899535410
  frame_id: gps
status: 
  status: 0
  service: 3
latitude: 37.445954
longitude: -122.1656287
altitude: -11.587
position_covariance: [2.1697290000000002, 0.0, 0.0, 0.0, 2.1697290000000002, 0.0, 0.0, 0.0, 6.305121000000001]
position_covariance_type: 2
---
header: 
  seq: 6804
  stamp: 
    secs: 1511375998
    nsecs: 4294502674
  frame_id: gps
status: 
  status: 0
  service: 3
latitude: 37.4459565
longitude: -122.1656261
altitude: -11.609
position_covariance: [2.175625, 0.0, 0.0, 0.0, 2.175625, 0.0, 0.0, 0.0, 6.320195999999999]
position_covariance_type: 2
---
header: 
  seq: 6805
  stamp: 
    secs: 1511375998
    nsecs:  99535345
  frame_id: gps
status: 
  status: 0
  service: 3
latitude: 37.4459589
longitude: -122.1656237
altitude: -11.599
position_covariance: [2.178576, 0.0, 0.0, 0.0, 2.178576, 0.0, 0.0, 0.0, 6.3352889999999995]
position_covariance_type: 2
---
header: 
  seq: 6806
  stamp: 
    secs: 1511375998
    nsecs: 199535313
  frame_id: gps
status: 
  status: 0
  service: 3
latitude: 37.4459615
longitude: -122.1656212
altitude: -11.588
position_covariance: [2.184484, 0.0, 0.0, 0.0, 2.184484, 0.0, 0.0, 0.0, 6.3453610000000005]
position_covariance_type: 2
---
header: 
  seq: 6807
  stamp: 
    secs: 1511375998
    nsecs: 299535281
  frame_id: gps
status: 
  status: 0
  service: 3
latitude: 37.4459642
longitude: -122.1656186
altitude: -11.573
position_covariance: [2.1904, 0.0, 0.0, 0.0, 2.1904, 0.0, 0.0, 0.0, 6.360483999999999]
position_covariance_type: 2
---
header: 
  seq: 6808
  stamp: 
    secs: 1511375998
    nsecs: 399535249
  frame_id: gps
status: 
  status: 0
  service: 3
latitude: 37.4459667
longitude: -122.165616
altitude: -11.571
position_covariance: [2.1933610000000003, 0.0, 0.0, 0.0, 2.1933610000000003, 0.0, 0.0, 0.0, 6.365529]
position_covariance_type: 2
---
header: 
  seq: 6809
  stamp: 
    secs: 1511375998
    nsecs: 499535216
  frame_id: gps
status: 
  status: 0
  service: 3
latitude: 37.4459694
longitude: -122.1656132
altitude: -11.571
position_covariance: [2.1992890000000003, 0.0, 0.0, 0.0, 2.1992890000000003, 0.0, 0.0, 0.0, 6.370576]
position_covariance_type: 2
---
header: 
  seq: 6810
  stamp: 
    secs: 1511375998
    nsecs: 599535184
  frame_id: gps
status: 
  status: 0
  service: 3
latitude: 37.4459722
longitude: -122.1656103
altitude: -11.568
position_covariance: [2.2022559999999998, 0.0, 0.0, 0.0, 2.2022559999999998, 0.0, 0.0, 0.0, 6.375624999999999]
position_covariance_type: 2
---
header: 
  seq: 6811
  stamp: 
    secs: 1511375998
    nsecs: 699535152
  frame_id: gps
status: 
  status: 0
  service: 3
latitude: 37.4459751
longitude: -122.1656076
altitude: -11.6
position_covariance: [2.208196, 0.0, 0.0, 0.0, 2.208196, 0.0, 0.0, 0.0, 6.380675999999999]
position_covariance_type: 2
---
header: 
  seq: 6812
  stamp: 
    secs: 1511375998
    nsecs: 799535120
  frame_id: gps
status: 
  status: 0
  service: 3
latitude: 37.445978
longitude: -122.1656049
altitude: -11.589
position_covariance: [2.214144, 0.0, 0.0, 0.0, 2.214144, 0.0, 0.0, 0.0, 6.385729]
position_covariance_type: 2
---
header: 
  seq: 6813
  stamp: 
    secs: 1511375998
    nsecs: 899535088
  frame_id: gps
status: 
  status: 0
  service: 3
latitude: 37.4459809
longitude: -122.1656019
altitude: -11.557
position_covariance: [2.2201, 0.0, 0.0, 0.0, 2.2201, 0.0, 0.0, 0.0, 6.390784]
position_covariance_type: 2
---
header: 
  seq: 6814
  stamp: 
    secs: 1511375999
    nsecs: 4294502353
  frame_id: gps
status: 
  status: 0
  service: 3
latitude: 37.4459839
longitude: -122.1655988
altitude: -11.573
position_covariance: [2.226064, 0.0, 0.0, 0.0, 2.226064, 0.0, 0.0, 0.0, 6.395841]
position_covariance_type: 2
---
header: 
  seq: 6815
  stamp: 
    secs: 1511375999
    nsecs:  99535024
  frame_id: gps
status: 
  status: 0
  service: 3
latitude: 37.445987
longitude: -122.1655956
altitude: -11.598
position_covariance: [2.232036, 0.0, 0.0, 0.0, 2.232036, 0.0, 0.0, 0.0, 6.400899999999999]
position_covariance_type: 2
---
header: 
  seq: 6816
  stamp: 
    secs: 1511375999
    nsecs: 199534992
  frame_id: gps
status: 
  status: 0
  service: 3
latitude: 37.44599
longitude: -122.1655921
altitude: -11.652
position_covariance: [2.238016, 0.0, 0.0, 0.0, 2.238016, 0.0, 0.0, 0.0, 6.4160889999999995]
position_covariance_type: 2
---
header: 
  seq: 6817
  stamp: 
    secs: 1511375999
    nsecs: 299534959
  frame_id: gps
status: 
  status: 0
  service: 3
latitude: 37.445993
longitude: -122.1655883
altitude: -11.664
position_covariance: [2.244004, 0.0, 0.0, 0.0, 2.244004, 0.0, 0.0, 0.0, 6.436369]
position_covariance_type: 2
---
header: 
  seq: 6818
  stamp: 
    secs: 1511375999
    nsecs: 399534927
  frame_id: gps
status: 
  status: 0
  service: 3
latitude: 37.4459961
longitude: -122.1655849
altitude: -11.636
position_covariance: [2.25, 0.0, 0.0, 0.0, 2.25, 0.0, 0.0, 0.0, 6.4516]
position_covariance_type: 2
---
header: 
  seq: 6819
  stamp: 
    secs: 1511375999
    nsecs: 499534895
  frame_id: gps
status: 
  status: 0
  service: 3
latitude: 37.4459992
longitude: -122.1655815
altitude: -11.633
position_covariance: [2.253001, 0.0, 0.0, 0.0, 2.253001, 0.0, 0.0, 0.0, 6.461763999999999]
position_covariance_type: 2
---
header: 
  seq: 6820
  stamp: 
    secs: 1511375999
    nsecs: 599534863
  frame_id: gps
status: 
  status: 0
  service: 3
latitude: 37.4460024
longitude: -122.1655782
altitude: -11.647
position_covariance: [2.262016, 0.0, 0.0, 0.0, 2.262016, 0.0, 0.0, 0.0, 6.466849000000001]
position_covariance_type: 2
---
header: 
  seq: 6821
  stamp: 
    secs: 1511375999
    nsecs: 699534831
  frame_id: gps
status: 
  status: 0
  service: 3
latitude: 37.4460058
longitude: -122.1655748
altitude: -11.658
position_covariance: [2.2710489999999997, 0.0, 0.0, 0.0, 2.2710489999999997, 0.0, 0.0, 0.0, 6.471936]
position_covariance_type: 2
---
header: 
  seq: 6822
  stamp: 
    secs: 1511375999
    nsecs: 799534799
  frame_id: gps
status: 
  status: 0
  service: 3
latitude: 37.446009
longitude: -122.1655714
altitude: -11.656
position_covariance: [2.2801, 0.0, 0.0, 0.0, 2.2801, 0.0, 0.0, 0.0, 6.482115999999999]
position_covariance_type: 2
---
header: 
  seq: 6823
  stamp: 
    secs: 1511375999
    nsecs: 899534767
  frame_id: gps
status: 
  status: 0
  service: 3
latitude: 37.4460122
longitude: -122.1655676
altitude: -11.65
position_covariance: [2.289169, 0.0, 0.0, 0.0, 2.289169, 0.0, 0.0, 0.0, 6.482115999999999]
position_covariance_type: 2
---
header: 
  seq: 6824
  stamp: 
    secs: 1511376000
    nsecs: 4294502031
  frame_id: gps
status: 
  status: 0
  service: 3
latitude: 37.4460155
longitude: -122.1655638
altitude: -11.616
position_covariance: [2.298256, 0.0, 0.0, 0.0, 2.298256, 0.0, 0.0, 0.0, 6.487209000000001]
position_covariance_type: 2
---
header: 
  seq: 6825
  stamp: 
    secs: 1511376000
    nsecs:  99534702
  frame_id: gps
status: 
  status: 0
  service: 3
latitude: 37.446019
longitude: -122.1655606
altitude: -11.626
position_covariance: [2.3073609999999998, 0.0, 0.0, 0.0, 2.3073609999999998, 0.0, 0.0, 0.0, 6.497401]
position_covariance_type: 2
---
header: 
  seq: 6826
  stamp: 
    secs: 1511376000
    nsecs: 199534670
  frame_id: gps
status: 
  status: 0
  service: 3
latitude: 37.4460224
longitude: -122.1655573
altitude: -11.58
position_covariance: [2.316484, 0.0, 0.0, 0.0, 2.316484, 0.0, 0.0, 0.0, 6.5024999999999995]
position_covariance_type: 2
---
header: 
  seq: 6827
  stamp: 
    secs: 1511376000
    nsecs: 299534638
  frame_id: gps
status: 
  status: 0
  service: 3
latitude: 37.446026
longitude: -122.1655539
altitude: -11.572
position_covariance: [2.3256249999999996, 0.0, 0.0, 0.0, 2.3256249999999996, 0.0, 0.0, 0.0, 6.507601000000001]
position_covariance_type: 2
---
header: 
  seq: 6828
  stamp: 
    secs: 1511376000
    nsecs: 399534606
  frame_id: gps
status: 
  status: 0
  service: 3
latitude: 37.4460294
longitude: -122.1655505
altitude: -11.601
position_covariance: [2.3317289999999997, 0.0, 0.0, 0.0, 2.3317289999999997, 0.0, 0.0, 0.0, 6.507601000000001]
position_covariance_type: 2
---
header: 
  seq: 6829
  stamp: 
    secs: 1511376000
    nsecs: 499534574
  frame_id: gps
status: 
  status: 0
  service: 3
latitude: 37.4460324
longitude: -122.1655468
altitude: -11.669
position_covariance: [2.3378409999999996, 0.0, 0.0, 0.0, 2.3378409999999996, 0.0, 0.0, 0.0, 6.512704]
position_covariance_type: 2
---
header: 
  seq: 6830
  stamp: 
    secs: 1511376000
    nsecs: 599534542
  frame_id: gps
status: 
  status: 0
  service: 3
latitude: 37.4460357
longitude: -122.1655433
altitude: -11.656
position_covariance: [2.3439609999999997, 0.0, 0.0, 0.0, 2.3439609999999997, 0.0, 0.0, 0.0, 6.512704]
position_covariance_type: 2
---
header: 
  seq: 6831
  stamp: 
    secs: 1511376000
    nsecs: 699534509
  frame_id: gps
status: 
  status: 0
  service: 3
latitude: 37.446039
longitude: -122.16554
altitude: -11.648
position_covariance: [2.347024, 0.0, 0.0, 0.0, 2.347024, 0.0, 0.0, 0.0, 6.517809]
position_covariance_type: 2
---
header: 
  seq: 6832
  stamp: 
    secs: 1511376000
    nsecs: 799534477
  frame_id: gps
status: 
  status: 0
  service: 3
latitude: 37.4460423
longitude: -122.1655369
altitude: -11.704
position_covariance: [2.3531560000000002, 0.0, 0.0, 0.0, 2.3531560000000002, 0.0, 0.0, 0.0, 6.5229159999999995]
position_covariance_type: 2
---
header: 
  seq: 6833
  stamp: 
    secs: 1511376000
    nsecs: 899534445
  frame_id: gps
status: 
  status: 0
  service: 3
latitude: 37.4460458
longitude: -122.1655339
altitude: -11.697
position_covariance: [2.359296, 0.0, 0.0, 0.0, 2.359296, 0.0, 0.0, 0.0, 6.5229159999999995]
position_covariance_type: 2
---
header: 
  seq: 6834
  stamp: 
    secs: 1511376001
    nsecs: 4294501710
  frame_id: gps
status: 
  status: 0
  service: 3
latitude: 37.446049
longitude: -122.1655307
altitude: -11.683
position_covariance: [2.368521, 0.0, 0.0, 0.0, 2.368521, 0.0, 0.0, 0.0, 6.5229159999999995]
position_covariance_type: 2
---
header: 
  seq: 6835
  stamp: 
    secs: 1511376001
    nsecs:  99534381
  frame_id: gps
status: 
  status: 0
  service: 3
latitude: 37.4460523
longitude: -122.1655275
altitude: -11.669
position_covariance: [2.377764, 0.0, 0.0, 0.0, 2.377764, 0.0, 0.0, 0.0, 6.528025]
position_covariance_type: 2
---
header: 
  seq: 6836
  stamp: 
    secs: 1511376001
    nsecs: 199534349
  frame_id: gps
status: 
  status: 0
  service: 3
latitude: 37.4460557
longitude: -122.1655244
altitude: -11.694
position_covariance: [2.387025, 0.0, 0.0, 0.0, 2.387025, 0.0, 0.0, 0.0, 6.533136]
position_covariance_type: 2
---
header: 
  seq: 6837
  stamp: 
    secs: 1511376001
    nsecs: 299534317
  frame_id: gps
status: 
  status: 0
  service: 3
latitude: 37.4460589
longitude: -122.1655213
altitude: -11.715
position_covariance: [2.396304, 0.0, 0.0, 0.0, 2.396304, 0.0, 0.0, 0.0, 6.5382489999999995]
position_covariance_type: 2
---
header: 
  seq: 6838
  stamp: 
    secs: 1511376001
    nsecs: 399534285
  frame_id: gps
status: 
  status: 0
  service: 3
latitude: 37.4460622
longitude: -122.1655184
altitude: -11.79
position_covariance: [2.405601, 0.0, 0.0, 0.0, 2.405601, 0.0, 0.0, 0.0, 6.5433639999999995]
position_covariance_type: 2
---
header: 
  seq: 6839
  stamp: 
    secs: 1511376001
    nsecs: 499534253
  frame_id: gps
status: 
  status: 0
  service: 3
latitude: 37.4460657
longitude: -122.1655157
altitude: -11.908
position_covariance: [2.4149160000000003, 0.0, 0.0, 0.0, 2.4149160000000003, 0.0, 0.0, 0.0, 6.5536]
position_covariance_type: 2
---
header: 
  seq: 6840
  stamp: 
    secs: 1511376001
    nsecs: 599534221
  frame_id: gps
status: 
  status: 0
  service: 3
latitude: 37.446069
longitude: -122.1655126
altitude: -11.955
position_covariance: [2.4273640000000003, 0.0, 0.0, 0.0, 2.4273640000000003, 0.0, 0.0, 0.0, 6.558720999999999]
position_covariance_type: 2
---
header: 
  seq: 6841
  stamp: 
    secs: 1511376001
    nsecs: 699534189
  frame_id: gps
status: 
  status: 0
  service: 3
latitude: 37.4460719
longitude: -122.1655093
altitude: -11.941
position_covariance: [2.436721, 0.0, 0.0, 0.0, 2.436721, 0.0, 0.0, 0.0, 6.568969000000001]
position_covariance_type: 2
---
header: 
  seq: 6842
  stamp: 
    secs: 1511376001
    nsecs: 799534157
  frame_id: gps
status: 
  status: 0
  service: 3
latitude: 37.4460746
longitude: -122.1655061
altitude: -12.008
position_covariance: [2.4460960000000003, 0.0, 0.0, 0.0, 2.4460960000000003, 0.0, 0.0, 0.0, 6.574096]
position_covariance_type: 2
---
header: 
  seq: 6843
  stamp: 
    secs: 1511376001
    nsecs: 899534125
  frame_id: gps
status: 
  status: 0
  service: 3
latitude: 37.4460774
longitude: -122.1655027
altitude: -12.021
position_covariance: [2.455489, 0.0, 0.0, 0.0, 2.455489, 0.0, 0.0, 0.0, 6.579225]
position_covariance_type: 2
---
header: 
  seq: 6844
  stamp: 
    secs: 1511376002
    nsecs: 4294501390
  frame_id: gps
status: 
  status: 0
  service: 3
latitude: 37.4460804
longitude: -122.1654995
altitude: -12.022
position_covariance: [2.4649, 0.0, 0.0, 0.0, 2.4649, 0.0, 0.0, 0.0, 6.584355999999999]
position_covariance_type: 2
---
header: 
  seq: 6845
  stamp: 
    secs: 1511376002
    nsecs:  99534060
  frame_id: gps
status: 
  status: 0
  service: 3
latitude: 37.4460836
longitude: -122.1654963
altitude: -12.026
position_covariance: [2.471184, 0.0, 0.0, 0.0, 2.471184, 0.0, 0.0, 0.0, 6.589489000000001]
position_covariance_type: 2
---
header: 
  seq: 6846
  stamp: 
    secs: 1511376002
    nsecs: 199534028
  frame_id: gps
status: 
  status: 0
  service: 3
latitude: 37.4460865
longitude: -122.1654929
altitude: -12.053
position_covariance: [2.474329, 0.0, 0.0, 0.0, 2.474329, 0.0, 0.0, 0.0, 6.589489000000001]
position_covariance_type: 2
---
header: 
  seq: 6847
  stamp: 
    secs: 1511376002
    nsecs: 299533996
  frame_id: gps
status: 
  status: 0
  service: 3
latitude: 37.4460895
longitude: -122.1654895
altitude: -12.055
position_covariance: [2.4774760000000002, 0.0, 0.0, 0.0, 2.4774760000000002, 0.0, 0.0, 0.0, 6.589489000000001]
position_covariance_type: 2
---
header: 
  seq: 6848
  stamp: 
    secs: 1511376002
    nsecs: 399533964
  frame_id: gps
status: 
  status: 0
  service: 3
latitude: 37.4460925
longitude: -122.1654861
altitude: -12.174
position_covariance: [2.483776, 0.0, 0.0, 0.0, 2.483776, 0.0, 0.0, 0.0, 6.5946240000000005]
position_covariance_type: 2
---
header: 
  seq: 6849
  stamp: 
    secs: 1511376002
    nsecs: 499533932
  frame_id: gps
status: 
  status: 0
  service: 3
latitude: 37.4460958
longitude: -122.1654828
altitude: -12.14
position_covariance: [2.483776, 0.0, 0.0, 0.0, 2.483776, 0.0, 0.0, 0.0, 6.5946240000000005]
position_covariance_type: 2
---
header: 
  seq: 6850
  stamp: 
    secs: 1511376002
    nsecs: 599533900
  frame_id: gps
status: 
  status: 0
  service: 3
latitude: 37.4460989
longitude: -122.1654796
altitude: -12.118
position_covariance: [2.483776, 0.0, 0.0, 0.0, 2.483776, 0.0, 0.0, 0.0, 6.589489000000001]
position_covariance_type: 2
---
header: 
  seq: 6851
  stamp: 
    secs: 1511376002
    nsecs: 699533868
  frame_id: gps
status: 
  status: 0
  service: 3
latitude: 37.4461021
longitude: -122.1654763
altitude: -12.093
position_covariance: [2.480625, 0.0, 0.0, 0.0, 2.480625, 0.0, 0.0, 0.0, 6.589489000000001]
position_covariance_type: 2
---
header: 
  seq: 6852
  stamp: 
    secs: 1511376002
    nsecs: 799533836
  frame_id: gps
status: 
  status: 0
  service: 3
latitude: 37.4461052
longitude: -122.1654729
altitude: -12.045
position_covariance: [2.4774760000000002, 0.0, 0.0, 0.0, 2.4774760000000002, 0.0, 0.0, 0.0, 6.584355999999999]
position_covariance_type: 2
---
header: 
  seq: 6853
  stamp: 
    secs: 1511376002
    nsecs: 899533804
  frame_id: gps
status: 
  status: 0
  service: 3
latitude: 37.4461083
longitude: -122.1654696
altitude: -12.046
position_covariance: [2.471184, 0.0, 0.0, 0.0, 2.471184, 0.0, 0.0, 0.0, 6.579225]
position_covariance_type: 2
---
header: 
  seq: 6854
  stamp: 
    secs: 1511376003
    nsecs: 4294501069
  frame_id: gps
status: 
  status: 0
  service: 3
latitude: 37.4461114
longitude: -122.1654664
altitude: -12.088
position_covariance: [2.4649, 0.0, 0.0, 0.0, 2.4649, 0.0, 0.0, 0.0, 6.579225]
position_covariance_type: 2
---
header: 
  seq: 6855
  stamp: 
    secs: 1511376003
    nsecs:  99533739
  frame_id: gps
status: 
  status: 0
  service: 3
latitude: 37.4461147
longitude: -122.1654633
altitude: -12.035
position_covariance: [2.4617609999999996, 0.0, 0.0, 0.0, 2.4617609999999996, 0.0, 0.0, 0.0, 6.589489000000001]
position_covariance_type: 2
---
header: 
  seq: 6856
  stamp: 
    secs: 1511376003
    nsecs: 199533707
  frame_id: gps
status: 
  status: 0
  service: 3
latitude: 37.4461177
longitude: -122.16546
altitude: -11.983
position_covariance: [2.4586240000000004, 0.0, 0.0, 0.0, 2.4586240000000004, 0.0, 0.0, 0.0, 6.604899999999999]
position_covariance_type: 2
---
header: 
  seq: 6857
  stamp: 
    secs: 1511376003
    nsecs: 299533675
  frame_id: gps
status: 
  status: 0
  service: 3
latitude: 37.4461209
longitude: -122.1654567
altitude: -11.987
position_covariance: [2.4617609999999996, 0.0, 0.0, 0.0, 2.4617609999999996, 0.0, 0.0, 0.0, 6.635776000000001]
position_covariance_type: 2
---
header: 
  seq: 6858
  stamp: 
    secs: 1511376003
    nsecs: 399533643
  frame_id: gps
status: 
  status: 0
  service: 3
latitude: 37.4461239
longitude: -122.1654535
altitude: -12.019
position_covariance: [2.468041, 0.0, 0.0, 0.0, 2.468041, 0.0, 0.0, 0.0, 6.661561]
position_covariance_type: 2
---
header: 
  seq: 6859
  stamp: 
    secs: 1511376003
    nsecs: 499533611
  frame_id: gps
status: 
  status: 0
  service: 3
latitude: 37.446127
longitude: -122.1654505
altitude: -12.055
position_covariance: [2.4774760000000002, 0.0, 0.0, 0.0, 2.4774760000000002, 0.0, 0.0, 0.0, 6.692569000000001]
position_covariance_type: 2
---
header: 
  seq: 6860
  stamp: 
    secs: 1511376003
    nsecs: 599533579
  frame_id: gps
status: 
  status: 0
  service: 3
latitude: 37.44613
longitude: -122.1654475
altitude: -12.087
position_covariance: [2.480625, 0.0, 0.0, 0.0, 2.480625, 0.0, 0.0, 0.0, 6.723649]
position_covariance_type: 2
---
header: 
  seq: 6861
  stamp: 
    secs: 1511376003
    nsecs: 699533547
  frame_id: gps
status: 
  status: 0
  service: 3
latitude: 37.446133
longitude: -122.1654444
altitude: -12.084
position_covariance: [2.486929, 0.0, 0.0, 0.0, 2.486929, 0.0, 0.0, 0.0, 6.749604]
position_covariance_type: 2
---
header: 
  seq: 6862
  stamp: 
    secs: 1511376003
    nsecs: 799533515
  frame_id: gps
status: 
  status: 0
  service: 3
latitude: 37.446136
longitude: -122.1654413
altitude: -12.112
position_covariance: [2.4900840000000004, 0.0, 0.0, 0.0, 2.4900840000000004, 0.0, 0.0, 0.0, 6.775609000000001]
position_covariance_type: 2
---
header: 
  seq: 6863
  stamp: 
    secs: 1511376003
    nsecs: 899533483
  frame_id: gps
status: 
  status: 0
  service: 3
latitude: 37.4461391
longitude: -122.1654383
altitude: -12.103
position_covariance: [2.493241, 0.0, 0.0, 0.0, 2.493241, 0.0, 0.0, 0.0, 6.801664000000001]
position_covariance_type: 2
---
header: 
  seq: 6864
  stamp: 
    secs: 1511376004
    nsecs: 4294500748
  frame_id: gps
status: 
  status: 0
  service: 3
latitude: 37.4461422
longitude: -122.1654352
altitude: -12.079
position_covariance: [2.493241, 0.0, 0.0, 0.0, 2.493241, 0.0, 0.0, 0.0, 6.832996]
position_covariance_type: 2
---
header: 
  seq: 6865
  stamp: 
    secs: 1511376004
    nsecs:  99533419
  frame_id: gps
status: 
  status: 0
  service: 3
latitude: 37.4461452
longitude: -122.1654321
altitude: -12.082
position_covariance: [2.493241, 0.0, 0.0, 0.0, 2.493241, 0.0, 0.0, 0.0, 6.853923999999999]
position_covariance_type: 2
---
header: 
  seq: 6866
  stamp: 
    secs: 1511376004
    nsecs: 199533387
  frame_id: gps
status: 
  status: 0
  service: 3
latitude: 37.4461483
longitude: -122.1654296
altitude: -12.206
position_covariance: [2.4964000000000004, 0.0, 0.0, 0.0, 2.4964000000000004, 0.0, 0.0, 0.0, 6.880129000000001]
position_covariance_type: 2
---
header: 
  seq: 6867
  stamp: 
    secs: 1511376004
    nsecs: 299533355
  frame_id: gps
status: 
  status: 0
  service: 3
latitude: 37.4461514
longitude: -122.1654267
altitude: -12.232
position_covariance: [2.4964000000000004, 0.0, 0.0, 0.0, 2.4964000000000004, 0.0, 0.0, 0.0, 6.906384000000001]
position_covariance_type: 2
---
header: 
  seq: 6868
  stamp: 
    secs: 1511376004
    nsecs: 399533323
  frame_id: gps
status: 
  status: 0
  service: 3
latitude: 37.4461545
longitude: -122.1654236
altitude: -12.239
position_covariance: [2.4964000000000004, 0.0, 0.0, 0.0, 2.4964000000000004, 0.0, 0.0, 0.0, 6.932689]
position_covariance_type: 2
---
header: 
  seq: 6869
  stamp: 
    secs: 1511376004
    nsecs: 499533291
  frame_id: gps
status: 
  status: 0
  service: 3
latitude: 37.4461575
longitude: -122.1654203
altitude: -12.236
position_covariance: [2.499561, 0.0, 0.0, 0.0, 2.499561, 0.0, 0.0, 0.0, 6.959044]
position_covariance_type: 2
---
header: 
  seq: 6870
  stamp: 
    secs: 1511376004
    nsecs: 599533259
  frame_id: gps
status: 
  status: 0
  service: 3
latitude: 37.4461606
longitude: -122.1654173
altitude: -12.243
position_covariance: [2.509056, 0.0, 0.0, 0.0, 2.509056, 0.0, 0.0, 0.0, 6.980163999999999]
position_covariance_type: 2
---
header: 
  seq: 6871
  stamp: 
    secs: 1511376004
    nsecs: 699533227
  frame_id: gps
status: 
  status: 0
  service: 3
latitude: 37.4461635
longitude: -122.1654142
altitude: -12.274
position_covariance: [2.5153960000000004, 0.0, 0.0, 0.0, 2.5153960000000004, 0.0, 0.0, 0.0, 7.006608999999999]
position_covariance_type: 2
---
header: 
  seq: 6872
  stamp: 
    secs: 1511376004
    nsecs: 799533194
  frame_id: gps
status: 
  status: 0
  service: 3
latitude: 37.4461665
longitude: -122.1654111
altitude: -12.256
position_covariance: [2.524921, 0.0, 0.0, 0.0, 2.524921, 0.0, 0.0, 0.0, 7.033104000000001]
position_covariance_type: 2
---
header: 
  seq: 6873
  stamp: 
    secs: 1511376004
    nsecs: 899533162
  frame_id: gps
status: 
  status: 0
  service: 3
latitude: 37.4461696
longitude: -122.165408
altitude: -12.246
position_covariance: [2.5344640000000003, 0.0, 0.0, 0.0, 2.5344640000000003, 0.0, 0.0, 0.0, 7.064964]
position_covariance_type: 2
---
header: 
  seq: 6874
  stamp: 
    secs: 1511376005
    nsecs: 4294500427
  frame_id: gps
status: 
  status: 0
  service: 3
latitude: 37.4461727
longitude: -122.1654048
altitude: -12.187
position_covariance: [2.540836, 0.0, 0.0, 0.0, 2.540836, 0.0, 0.0, 0.0, 7.091568999999999]
position_covariance_type: 2
---
header: 
  seq: 6875
  stamp: 
    secs: 1511376005
    nsecs:  99533098
  frame_id: gps
status: 
  status: 0
  service: 3
latitude: 37.4461756
longitude: -122.1654022
altitude: -12.255
position_covariance: [2.5504089999999997, 0.0, 0.0, 0.0, 2.5504089999999997, 0.0, 0.0, 0.0, 7.1182240000000006]
position_covariance_type: 2
---
header: 
  seq: 6876
  stamp: 
    secs: 1511376005
    nsecs: 199533066
  frame_id: gps
